"","station.id","elev","lon","lat","station.name"
"1","010148",339,-86.22,34.25,"ALBERTVILLE "
"2","010160",201,-85.95,32.95,"ALEXANDER CI"
"3","010163",201,-85.87,32.98,"ALEXANDER CI"
"4","010178",49,-88.13,33.15,"ALICEVILLE  "
"5","010252",107,-86.5,31.32,"ANDALUSIA 3 "
"6","010272",184,-85.85,33.58,"ANNISTON-CAL"
"7","010369",308,-85.83,33.27,"ASHLAND     "
"8","010395",220,-86.98,34.8,"ATHENS 2    "
"9","010402",92,-87.48,31.17,"ATMORE STATE"
"10","010407",88,-87.52,31.02,"ATMORE      "
"11","010422",223,-85.5,32.6,"AUBURN      "
"12","010505",85,-87.35,33.45,"BANKHEAD L &"
"13","010583",82,-87.78,30.88,"BAY MINETTE "
"14","010616",55,-87.2,31.73,"BEATRICE    "
"15","010655",183,-86.88,34.7,"BELLE MINA 2"
"16","010757",162,-86.97,33.35,"BESSEMER 3 S"
"17","010764",136,-87,33.4,"BESSEMER 3 W"
"18","010829",227,-86.83,33.47,"BIRMINGHAM W"
"19","010831",192,-86.75,33.57,"BIRMINGHAM M"
"20","011069",82,-86.27,31.58,"BRANTLEY    "
"21","011080",49,-87.03,31.12,"BREWTON 3 EN"
"22","011084",26,-87.05,31.07,"BREWTON 3SSE"
"23","011099",201,-85.75,34.93,"BRIDGEPORT 5"
"24","011288",153,-86.75,33.1,"CALERA      "
"25","011300",67,-87.3,32,"CAMDEN 3 NW "
"26","011301",72,-87.32,32.03,"CAMDEN 3 NW "
"27","011324",207,-85.68,32.83,"CAMP HILL 2 "
"28","011512",204,-85.68,34.15,"CENTRE 4 SW "
"29","011520",70,-87.13,32.95,"CENTREVILLE "
"30","011525",139,-87.25,32.9,"CENTREVILLE "
"31","011566",61,-88.25,31.47,"CHATOM      "
"32","011620",127,-86.33,33.28,"CHILDERSBURG"
"33","011685",101,-88.23,31.08,"CITRONELLE  "
"34","011694",180,-86.63,32.85,"CLANTON     "
"35","011725",183,-85.45,31.88,"CLAYTON     "
"36","011803",3,-88.22,30.38,"CODEN       "
"37","011940",101,-87.18,33.77,"CORDOVA 2 EN"
"38","012172",2,-88.08,30.25,"DAUPHIN ISLA"
"39","012188",67,-87.65,32.35,"DAYTON 1 N  "
"40","012207",174,-86.97,34.62,"DECATUR     "
"41","012245",31,-87.83,32.52,"DEMOPOLIS L "
"42","012372",98,-85.43,31.23,"DOTHAN ARPT "
"43","012386",256,-87.42,34.15,"DOUBLE SPRIN"
"44","012670",116,-85.85,31.32,"ENTERPRISE  "
"45","012675",125,-85.88,31.33,"ENTERPRISE 5"
"46","012727",76,-85.13,31.88,"EUFAULA     "
"47","012730",67,-85.08,32,"EUFAULA     "
"48","012758",104,-86.97,31.43,"EVERGREEN   "
"49","012763",78,-87.03,31.42,"EVERGREEN IN"
"50","012813",7,-87.88,30.55,"FAIRHOPE 2NE"
"51","012840",189,-86.92,34.37,"FALKVILLE 1 "
"52","012883",110,-87.83,33.68,"FAYETTE     "
"53","012971",183,-87.68,34.82,"FLORENCE    "
"54","013035",3,-88.02,30.23,"FORT MORGAN "
"55","013105",125,-87.4,31.43,"FRISCO CITY "
"56","013151",168,-86,34.02,"GADSDEN     "
"57","013160",38,-88.13,32.83,"GAINESVILLE "
"58","013251",46,-85.88,31.05,"GENEVA NO 2 "
"59","013255",34,-85.85,31.03,"GENEVA      "
"60","013308",37,-88.33,31.88,"GILBERTOWN  "
"61","013399",253,-86.05,33.07,"GOODWATER   "
"62","013511",67,-87.58,32.7,"GREENSBORO  "
"63","013519",134,-86.63,31.83,"GREENVILLE  "
"64","013573",176,-86.32,34.33,"GUNTERSVILLE"
"65","013620",290,-87.62,34.23,"HALEYVILLE  "
"66","013645",159,-87.98,34.1,"HAMILTON 3 S"
"67","013748",61,-86.58,32.18,"HAYNEVILLE  "
"68","013761",113,-85.33,31.35,"HEADLAND    "
"69","013775",259,-85.6,33.65,"HEFLIN      "
"70","013816",181,-86.32,31.95,"HIGHLAND HOM"
"71","014064",185,-86.58,34.7,"HUNTSVILLE M"
"72","014193",67,-87.9,31.5,"JACKSON     "
"73","014226",162,-87.27,33.9,"JASPER      "
"74","014502",253,-85.4,32.9,"LAFAYETTE 2 "
"75","014798",49,-88.18,32.58,"LIVINGSTON 2"
"76","014822",88,-86.37,31.02,"LOCKHART    "
"77","014845",156,-86.18,33.63,"LOCK 4      "
"78","014976",174,-86.75,34.7,"MADISON     "
"79","015121",61,-87.22,32.47,"MARION JUNCT"
"80","015140",104,-85.92,32.67,"WALNUT HILL "
"81","015202",53,-86.35,32.38,"MAXWELL AFB "
"82","015439",66,-85.88,32.45,"MILSTEAD    "
"83","015449",88,-87.07,32.1,"MINTER 3 NW "
"84","015478",66,-88.23,30.68,"MOBILE REGIO"
"85","015483",22,-88.03,30.7,"MOBILE WB CI"
"86","015550",61,-86.4,32.3,"MONTGOMERY D"
"87","015635",197,-87.3,34.48,"MOULTON 2   "
"88","015749",163,-87.62,34.75,"MUSCLE SHOAL"
"89","015785",55,-87.27,31.72,"NATCHEZ     "
"90","015867",229,-86.43,34.92,"NEW MARKET 2"
"91","016121",262,-86.48,33.95,"ONEONTA     "
"92","016129",226,-85.38,32.63,"OPELIKA     "
"93","016218",122,-85.65,31.47,"OZARK 6 NNW "
"94","016329",281,-86.25,33.6,"PELL CITY 1 "
"95","016398",174,-85.02,32.5,"PHENIX CITY "
"96","016478",185,-86.7,33.68,"PINSON      "
"97","016501",116,-85.17,32.18,"PITTSVIEW   "
"98","016640",85,-86.47,32.47,"PRATTVILLE  "
"99","016719",79,-88.35,32.2,"PUSHMATAHA  "
"100","016805",207,-88.13,34.43,"RED BAY     "
"101","016833",174,-86.6,34.58,"REDSTONE ARS"
"102","016988",46,-87.6,30.55,"ROBERTSDALE "
"103","017020",198,-86.22,32.88,"ROCKFORD 3 E"
"104","017025",229,-85.3,33.15,"ROCK MILLS  "
"105","017131",265,-87.73,34.5,"RUSSELLVILLE"
"106","017157",244,-86.82,34.17,"ST BERNARD  "
"107","017207",366,-85.97,34.28,"SAND MT SUBS"
"108","017304",187,-86.05,34.68,"SCOTTSBORO  "
"109","017366",45,-87,32.42,"SELMA       "
"110","017733",55,-88.17,30.7,"SPRING HILL "
"111","017999",149,-86.2,33.2,"SYLACAUGA 4 "
"112","018024",169,-86.1,33.43,"TALLADEGA   "
"113","018178",123,-87.73,31.92,"THOMASVILLE "
"114","018209",207,-86.7,32.88,"THORSBY     "
"115","018323",152,-85.95,31.78,"TROY        "
"116","018380",52,-87.62,33.23,"TUSCALOOSA A"
"117","018385",46,-87.58,33.22,"TUSCALOOSA O"
"118","018398",140,-85.7,32.43,"TUSKEGEE 2  "
"119","018438",134,-85.75,32.02,"UNION SPRING"
"120","018454",70,-87.55,33.2,"UNIVERSITY  "
"121","018469",324,-85.62,34.57,"VALLEY HEAD "
"122","018517",55,-88.12,33.75,"VERNON 2 N  "
"123","018686",131,-88.03,34.92,"WATERLOO    "
"124","018859",64,-86.2,32.53,"WETUMPKA    "
"125","018867",52,-87.72,31.65,"WHATLEY     "
"126","018998",143,-87.83,33.92,"WINFIELD 2 S"
"127","020060",665,-113.18,33.95,"AGUILA      "
"128","020080",549,-112.87,32.37,"AJO         "
"129","020099",336,-113.57,34.27,"ALAMO DAM 6 "
"130","020100",393,-113.58,34.23,"ALAMO DAM   "
"131","020104",342,-112.12,33.5,"ALHAMBRA 2 N"
"132","020159",2440,-109.13,33.85,"ALPINE      "
"133","020287",839,-111.38,31.97,"ANVIL RANCH "
"134","020288",631,-111.48,33.47,"APACHE JUNCT"
"135","020300",1641,-109.23,31.72,"APACHE 6 WNW"
"136","020306",506,-111.57,33.42,"APACHE JUNCT"
"137","020309",1125,-110.25,31.9,"APACHE POWDE"
"138","020415",860,-111.17,32.25,"ARIZONA SONO"
"139","020482",1568,-112.48,35.22,"ASH FORK 6 N"
"140","020582",976,-113.2,34.6,"BAGDAD      "
"141","020586",1144,-113.17,34.58,"BAGDAD      "
"142","020590",1293,-113.08,34.65,"BAGDAD 8 NE "
"143","020632",503,-111.63,33.82,"BARTLETT DAM"
"144","020670",1168,-111.72,34.67,"BEAVER CREEK"
"145","020672",590,-113.93,36.9,"BEAVER DAM  "
"146","020680",1093,-110.28,31.97,"BENSON      "
"147","020750",2196,-110.53,36.68,"BETATAKIN   "
"148","020768",1632,-109.92,31.45,"BISBEE      "
"149","020773",1531,-109.88,31.42,"BISBEE 2    "
"150","020808",1841,-109.77,33.48,"BLACK RIVER "
"151","020855",1757,-109.1,33.62,"BLUE        "
"152","020871",2077,-111.18,34.62,"BLUE RIDGE R"
"153","020949",284,-114.02,33.95,"BOUSE       "
"154","020958",1147,-109.48,32.33,"BOWIE       "
"155","021001",2562,-112.07,36.2,"BRIGHT ANGEL"
"156","021026",271,-112.58,33.38,"BUCKEYE     "
"157","021050",177,-114.6,35.12,"BULLHEAD CIT"
"158","021101",2074,-111.53,35.27,"BURRUS RANCH"
"159","021161",381,-111.98,33.5,"ARIZONA FALL"
"160","021169",1308,-111.42,35.87,"CAMERON 1 NN"
"161","021231",1525,-110.52,31.55,"CANELO 1 NW "
"162","021248",1710,-109.53,36.15,"CANYON-DE-CH"
"163","021282",772,-111.9,33.82,"CAREFREE    "
"164","021306",424,-111.75,32.88,"CASA GRANDE "
"165","021314",433,-111.53,33,"CASA GRANDE "
"166","021330",958,-110.38,32.3,"CASCABEL    "
"167","021353",607,-112.37,33.98,"CASTLE HOT S"
"168","021356",854,-112.35,34.05,"CASTLE HOT S"
"169","021361",656,-111.95,33.83,"CAVE CREEK  "
"170","021511",369,-111.83,33.3,"CHANDLER    "
"171","021514",442,-111.68,33.22,"CHANDLER HEI"
"172","021574",2138,-110.92,34.53,"CHEVELON R S"
"173","021614",808,-111.7,34.35,"CHILDS      "
"174","021654",1424,-112.45,34.77,"CHINO VALLEY"
"175","021664",1615,-109.35,32,"CHIRICAHUA N"
"176","021749",1617,-110.45,34.05,"CIBECUE     "
"177","021760",1928,-110.32,34.38,"CLAY SPRINGS"
"178","021849",1058,-109.28,33.05,"CLIFTON     "
"179","021875",1509,-109.95,31.95,"COCHISE STRO"
"180","021920",1528,-112.98,37,"COLORADO CIT"
"181","022020",924,-112.87,34.17,"CONGRESS    "
"182","022099",1946,-111.42,36.63,"COPPER MINE "
"183","022109",1149,-112.17,34.3,"CORDES      "
"184","022140",1598,-110.25,31.35,"CORONADO N M"
"185","022159",695,-111.12,32.33,"CORTARO 3 SW"
"186","022193",1013,-112.03,34.73,"TUZIGOOT    "
"187","022329",1805,-112.33,34.2,"CROWN KING  "
"188","022430",137,-113.53,32.8,"DATELAND    "
"189","022434",168,-113.5,32.98,"DATELAND WHI"
"190","022439",201,-114.57,35.2,"DAVIS DAM "
"191","022462",378,-112.13,33.58,"DEER VALLEY "
"192","022545",1531,-109.85,36.85,"DINNEHOTSO  "
"193","022659",1231,-109.53,31.35,"DOUGLAS     "
"194","022664",1251,-109.6,31.47,"BISBEE-DOUGL"
"195","022669",1211,-109.58,31.35,"DOUGLAS SMEL"
"196","022754",1110,-109.1,32.73,"DUNCAN      "
"197","022787",85,-114.53,33.6,"EHRENBERG   "
"198","022790",143,-114.42,33.58,"EHRENBERG 2 "
"199","022807",479,-111.55,32.75,"ELOY 4 NE   "
"200","022927",409,-111.73,33.43,"FALCON FIELD"
"201","023009",2172,-111.73,35.15,"FLAGSTAFF 4 "
"202","023010",2133,-111.67,35.13,"FLAGSTAFF   "
"203","023027",458,-111.38,33.03,"FLORENCE    "
"204","023071",1549,-110.23,31.4,"FLYING H RAN"
"205","023082",1861,-110.1,34.15,"FORESTDALE  "
"206","023102",2105,-109.08,35.75,"FORT DEFIANC"
"207","023110",1479,-109.95,32.62,"FORT GRANT  "
"208","023120",1422,-110.33,31.57,"FORT HUACHUC"
"209","023150",853,-110,33.02,"FORT THOMAS "
"210","023160",2239,-111.73,35.27,"FORT VALLEY "
"211","023190",482,-111.72,33.6,"FOUNTAIN HIL"
"212","023250",1427,-112.53,36.95,"FREDONIA    "
"213","023253",1129,-111.53,31.82,"FRESNAL RANC"
"214","023303",1937,-109.55,35.72,"GANADO      "
"215","023393",226,-112.72,32.95,"GILA BEND   "
"216","023398",261,-112.72,32.88,"GILA BEND AV"
"217","023498",1040,-110.8,33.38,"GLOBE       "
"218","023505",1112,-110.77,33.38,"GLOBE       "
"219","023573",366,-112.07,33.38,"SOUTH PHOENI"
"220","023586",2114,-112.13,36.05,"GRAND CANYON"
"221","023595",2126,-112.12,36.05,"GRAND CANYON"
"222","023596",2068,-112.15,36.05,"GRAND CANYON"
"223","023621",406,-111.7,33.52,"GRANITE REEF"
"224","023635",2074,-109.38,33.2,"GRANVILLE   "
"225","023683",2583,-109.45,34.02,"GREER       "
"226","023713",1861,-112.45,34.48,"GROOM CREEK "
"227","023828",2280,-111.42,34.75,"HAPPY JACK R"
"228","023852",384,-113.07,33.5,"HARQUAHALA P"
"229","023926",2493,-109.75,33.98,"HAWLEY LAKE "
"230","023961",1983,-110.57,34.42,"HEBER R S   "
"231","023973",982,-111.05,31.95,"HELMET PEAK "
"232","023981",1312,-110.78,31.87,"HELVETIA SAN"
"233","023987",1708,-109.8,33.82,"HENRYS CAMP "
"234","024053",976,-112.87,34.47,"HILLSIDE 4 N"
"235","024089",1545,-110.17,34.9,"HOLBROOK    "
"236","024335",759,-112.1,36.1,"PHANTOM RANC"
"237","024418",2410,-112.22,36.72,"JACOB LAKE  "
"238","024438",2044,-110.13,35.77,"JEDDITO     "
"239","024453",1601,-112.12,34.75,"JEROME      "
"240","024508",1562,-111.75,34.97,"OAK CREEK CA"
"241","024528",1830,-111.08,36.6,"KAIBITO     "
"242","024578",1732,-110.27,36.73,"KAYENTA     "
"243","024586",1894,-110.2,35.82,"KEAMS CANYON"
"244","024639",1047,-114,35.22,"KINGMAN     "
"245","024645",1079,-114.02,35.2,"KINGMAN 2   "
"246","024675",2086,-111.6,31.97,"KITT PEAK   "
"247","024686",1981,-109.7,35.55,"KLAGETOH 12 "
"248","024702",543,-113.87,33.27,"KOFA MINE   "
"249","024759",147,-114.37,34.45,"LAKE HAVASU "
"250","024829",339,-112.15,33.33,"LAVEEN 3 SSE"
"251","024849",978,-111.6,36.87,"LEES FERRY  "
"252","024872",1434,-110.97,35.28,"LEUPP       "
"253","024977",314,-112.37,33.5,"LITCHFIELD P"
"254","025129",1976,-109.23,36.42,"LUKACHUKAI  "
"255","025204",1620,-109.62,36.35,"MANY FARMS S"
"256","025270",357,-112.03,33.12,"MARICOPA 4 N"
"257","025274",378,-112.05,33.05,"MARICOPA 9 S"
"258","025282",351,-112.28,33.6,"MARINETTE   "
"259","025312",2379,-109.55,33.75,"MAVERICK    "
"260","025412",2230,-109.85,34.07,"MC NARY 2 N "
"261","025467",376,-111.8,33.42,"MESA        "
"262","025512",1085,-110.88,33.4,"MIAMI       "
"263","025627",165,-113.75,32.73,"MOHAWK      "
"264","025635",970,-111.83,34.62,"MONTEZUMA CA"
"265","025665",1696,-110.1,36.98,"MONUMENT VAL"
"266","025700",555,-111.45,33.55,"MORMON FLAT "
"267","025708",2135,-111.45,34.92,"MORMON LAKE "
"268","025732",2373,-110.75,32.45,"MOUNT LEMMON"
"269","025780",1972,-111.63,34.93,"MUND'S PARK "
"270","025825",1406,-111.45,34.32,"NATURAL BRID"
"271","025837",1705,-109.53,35.13,"NAVAJO      "
"272","025921",1159,-110.92,31.35,"NOGALES     "
"273","025922",1190,-110.95,31.33,"NOGALES OLD "
"274","025924",1147,-110.93,31.35,"NOGALES 6 N "
"275","026116",1403,-110.78,32.6,"ORACLE      "
"276","026119",1333,-110.72,32.57,"ORACLE 2 SE "
"277","026124",1833,-110.62,35.87,"ORAIBI      "
"278","026132",506,-112.78,31.93,"ORGAN PIPE C"
"279","026180",1302,-111.45,36.92,"PAGE        "
"280","026186",1647,-109.2,31.88,"PORTAL 4 SW "
"281","026202",2425,-110.72,32.42,"PALISADE RAN"
"282","026244",433,-111.97,33.55,"PARADISE VAL"
"283","026250",125,-114.22,34.22,"PARKER 6NE  "
"284","026315",1678,-111.27,34.4,"PAYSON 12 NN"
"285","026320",1479,-111.33,34.23,"PAYSON R S  "
"286","026353",1366,-109.87,31.92,"PEARCE SUNSI"
"287","026424",1177,-112.2,34.9,"PERKINSVILLE"
"288","026468",1665,-109.87,34.8,"PETRIFIED FO"
"289","026481",339,-112.03,33.43,"PHOENIX     "
"290","026486",337,-112.07,33.47,"PHOENIX CITY"
"291","026513",558,-111.4,32.65,"PICACHO 8 SE"
"292","026538",1177,-114.08,35.88,"PIERCE FERRY"
"293","026581",1983,-110.25,34.3,"PINEDALE    "
"294","026597",2121,-109.93,34.12,"PINETOP     "
"295","026604",1830,-110.23,36.1,"PINON       "
"296","026616",1500,-112.73,36.87,"PIPE SPRINGS"
"297","026630",580,-112.32,32.05,"PISINEMO    "
"298","026653",1540,-110.93,34.1,"PLEASANT VAL"
"299","026706",1525,-109.17,31.9,"PORTAL      "
"300","026796",1586,-112.43,34.57,"PRESCOTT    "
"301","026801",1530,-112.43,34.65,"PRESCOTT MUN"
"302","026840",716,-111.32,33.87,"PUNKIN CENTE"
"303","026865",268,-114.23,33.67,"QUARTZSITE  "
"304","027281",672,-111.15,33.67,"ROOSEVELT 1W"
"305","027324",1312,-111.23,31.47,"RUBY        "
"306","027355",796,-110.82,32.3,"SABINO CANYO"
"307","027370",392,-111.75,33.07,"SACATON     "
"308","027388",885,-109.72,32.83,"SAFFORD     "
"309","027390",900,-109.68,32.82,"SAFFORD AGRI"
"310","027403",824,-110.98,31.98,"SAHUARITA 2 "
"311","027435",1765,-109.38,34.52,"SAINT JOHNS "
"312","027453",586,-113.65,33.77,"SALOME 1 ESE"
"313","027460",519,-113.53,33.73,"SALOME 6 SE "
"314","027462",487,-113.48,33.68,"SALOME 17 SE"
"315","027475",805,-110.45,33.35,"SAN CARLOS  "
"316","027480",772,-110.53,33.18,"SAN CARLOS R"
"317","027488",1806,-109.4,35.2,"SANDERS     "
"318","027496",1905,-109.17,35.17,"SANDERS 11 E"
"319","027530",1025,-110.63,32.62,"SAN MANUEL  "
"320","027555",1446,-110.62,31.35,"SAN RAFAEL R"
"321","027560",1101,-109.22,32.27,"SAN SIMON   "
"322","027567",1183,-109.08,32.17,"SAN SIMON 9 "
"323","027593",1311,-110.85,31.77,"SANTA RITA E"
"324","027600",558,-112.05,32.32,"SANTA ROSA S"
"325","027619",1094,-111.55,31.48,"SASABE      "
"326","027625",1065,-111.5,31.57,"SASABE 6 NNE"
"327","027661",381,-111.92,33.5,"SCOTTSDALE  "
"328","027708",1287,-111.77,34.87,"SEDONA R S  "
"329","027716",1600,-112.88,35.32,"SELIGMAN    "
"330","027720",1598,-112.92,35.13,"SELIGMAN 13 "
"331","027726",723,-111.88,31.92,"SELLS       "
"332","027849",1955,-110,34.27,"SHOW LOW    "
"333","027855",1954,-110.03,34.25,"SHOW LOW AP "
"334","027876",1554,-110.97,33.8,"SIERRA ANCHA"
"335","027880",1402,-110.28,31.55,"SIERRA VISTA"
"336","027915",814,-111.5,32.38,"SILVER BELL "
"337","028012",1720,-110.08,34.5,"SNOWFLAKE   "
"338","028018",1853,-110.33,34.5,"SNOWFLAKE 15"
"339","028162",2145,-109.3,34.13,"SPRINGERVILL"
"340","028184",1061,-112.73,34.17,"STANTON     "
"341","028214",433,-111.53,33.55,"STEWART MOUN"
"342","028329",2128,-111.55,35.37,"SUNSET CRATE"
"343","028343",979,-112.7,36.2,"SUPAI       "
"344","028348",915,-111.1,33.3,"SUPERIOR    "
"345","028356",595,-111.43,33.38,"SUPERSTITION"
"346","028396",99,-113.92,32.72,"TACNA 3 NE  "
"347","028468",1580,-109.1,36.9,"TEEC NOS POS"
"348","028489",354,-111.93,33.43,"TEMPE 1 SE  "
"349","028496",360,-111.93,33.38,"TEMPE 3 S   "
"350","028499",360,-111.97,33.38,"TEMPE A S U "
"351","028516",390,-114.33,36.03,"TEMPLE BAR  "
"352","028619",1405,-110.05,31.7,"TOMBSTONE   "
"353","028641",342,-112.92,33.48,"TONOPAH 5 NE"
"354","028778",1164,-113.67,35.38,"TRUXTON CANY"
"355","028792",1506,-111.25,36.13,"TUBA CITY   "
"356","028795",781,-111.2,32.25,"TUCSON 17 NW"
"357","028796",710,-110.95,32.28,"TUCSON CP AV"
"358","028800",770,-110.83,32.25,"TUCSON MAGNE"
"359","028815",742,-110.95,32.23,"TUCSON U OF "
"360","028817",701,-111,32.27,"TUCSON U OF "
"361","028820",780,-110.95,32.13,"TUCSON INTL "
"362","028865",996,-111.05,31.57,"TUMACACORI N"
"363","028895",1458,-113.07,36.28,"TUWEEP      "
"364","028904",1058,-112.03,34.77,"TUZIGOOT    "
"365","029007",1830,-112.15,35.67,"VALLE AIRPOR"
"366","029114",1134,-111.48,36.98,"WAHWEAP     "
"367","029150",2074,-110.9,34.58,"WALLACE R S "
"368","029158",1551,-112.82,34.93,"WALNUT CREEK"
"369","029211",70,-114.13,32.68,"WELLTON     "
"370","029271",1561,-109.97,33.83,"WHITERIVER 1"
"371","029287",639,-112.73,33.98,"WICKENBURG  "
"372","029309",650,-113.62,34.73,"WIKIEUP     "
"373","029334",1281,-109.83,32.25,"WILLCOX     "
"374","029359",2057,-112.18,35.25,"WILLIAMS    "
"375","029376",244,-114.65,35.87,"WILLOW BEACH"
"376","029382",1205,-110.9,32.73,"WILLOW SPRIN"
"377","029410",2059,-109.05,35.68,"WINDOW ROCK "
"378","029420",647,-110.72,32.87,"WINKELMAN 6 "
"379","029439",1489,-110.73,35.02,"WINSLOW     "
"380","029464",519,-112.53,33.78,"WITTMANN    "
"381","029542",1494,-111.37,35.52,"WUPATKI N M "
"382","029634",348,-112.3,33.6,"YOUNGTOWN   "
"383","029645",552,-114.15,34.87,"YUCCA 1 NNE "
"384","029652",58,-114.65,32.62,"YUMA CITRUS "
"385","029654",99,-114.4,32.83,"YUMA PROVING"
"386","029657",34,-114.63,32.62,"YUMA VALLEY "
"387","029660",63,-114.6,32.67,"YUMA INTL AP"
"388","030064",78,-91.08,35.9,"ALICIA      "
"389","030130",232,-92.87,34.8,"ALUM FORK   "
"390","030220",61,-93.05,34.12,"ARKADELPHIA "
"391","030240",55,-91.35,34.03,"ARKANSAS POS"
"392","030286",101,-94.13,33.67,"ASHDOWN 4 SS"
"393","030350",70,-91.57,35.3,"BALD KNOB   "
"394","030456",110,-91.65,35.77,"BATESVILLE A"
"395","030458",174,-91.78,35.82,"BATESVILLE L"
"396","030460",118,-91.63,35.75,"BATESVILLE  "
"397","030528",198,-92.4,35.45,"BEE BRANCH  "
"398","030536",67,-91.1,35.43,"BEEDEVILLE 4"
"399","030582",87,-92.62,34.55,"BENTON      "
"400","030586",397,-94.22,36.37,"BENTONVILLE "
"401","030764",130,-93.2,34.57,"BLAKELY MOUN"
"402","030798",130,-93.65,35.12,"BLUE MOUNTAI"
"403","030806",76,-89.92,35.93,"BLYTHEVILLE "
"404","030828",140,-93.97,35.15,"BOONEVILLE 3"
"405","030830",156,-93.93,35.12,"BOONEVILLE 3"
"406","030832",213,-93.92,35.1,"BOONEVILLE 3"
"407","030936",61,-91.18,34.88,"BRINKLEY    "
"408","031102",88,-92.08,34.95,"CABOT 4 SW  "
"409","031132",116,-92.13,36.13,"CALICO ROCK "
"410","031140",30,-92.48,33.3,"CALION L & D"
"411","031152",37,-92.82,33.6,"CAMDEN 1    "
"412","031172",128,-94.3,35.3,"CAMP CHAFFEE"
"413","031442",52,-91.3,34.68,"CLARENDON   "
"414","031455",134,-93.47,35.47,"CLARKSVILLE "
"415","031596",94,-92.47,35.08,"CONWAY      "
"416","031632",91,-90.58,36.43,"CORNING     "
"417","031730",55,-91.93,33.03,"CROSSETT 2 S"
"418","031768",55,-91.58,34.07,"CUMMINS FARM"
"419","031838",101,-93.15,35.22,"DARDANELLE  "
"420","031900",726,-93.2,35.83,"DEER        "
"421","031948",131,-94.35,34.03,"DEQUEEN     "
"422","031962",44,-91.38,33.55,"DERMOTT 3 NE"
"423","031968",61,-91.5,34.97,"DES ARC     "
"424","031982",717,-93.4,35.72,"DEVILS KNOB "
"425","032015",128,-94.03,34.12,"DIERKS      "
"426","032148",49,-91.5,33.88,"DUMAS       "
"427","032300",77,-92.8,33.22,"EL DORADO GO"
"428","032336",70,-91.97,34.53,"ENGLAND     "
"429","032355",43,-91.27,33.12,"EUDORA      "
"430","032356",433,-93.78,36.42,"EUREKA SPRIN"
"431","032366",149,-91.62,36.08,"EVENING SHAD"
"432","032442",418,-94.17,36.08,"FAYETTEVILLE"
"433","032443",383,-94.17,36,"FAYETTEVILLE"
"434","032444",387,-94.17,36.1,"FAYETTEVILLE"
"435","032528",215,-92.6,36.3,"FLIPPIN     "
"436","032540",85,-92.37,33.7,"FORDYCE     "
"437","032564",79,-90.78,35.02,"FORREST CITY"
"438","032574",141,-94.37,35.33,"FT SMITH MUN"
"439","032578",241,-94.15,35.65,"MOUNTAINBURG"
"440","032794",183,-92.72,35.98,"GILBERT     "
"441","032908",281,-94.33,34.23,"GRANNIS     "
"442","032930",384,-94.45,36.43,"GRAVETTE    "
"443","032952",336,-92.2,36.03,"GREEN MOUNTA"
"444","032962",110,-92.38,35.23,"GREENBRIER  "
"445","032978",161,-92,35.52,"GREERS FERRY"
"446","033164",351,-93.12,36.23,"HARRISON    "
"447","033165",419,-93.15,36.27,"HARRISON FAA"
"448","033235",171,-92.97,35.47,"HECTOR 2 SSW"
"449","033242",61,-90.63,34.55,"HELENA      "
"450","033340",183,-93.77,34.03,"HIGHLAND    "
"451","033428",116,-93.55,33.72,"HOPE 3 NE   "
"452","033466",217,-93.05,34.52,"HOT SPRINGS "
"453","033540",442,-93.73,36.08,"HUNTSVILLE  "
"454","033544",544,-93.75,36.07,"HUNTSVILLE 1"
"455","033734",107,-90.7,35.83,"JONESBORO 4 "
"456","033761",66,-90.53,35.6,"JUDD HILL   "
"457","033821",71,-90.08,35.67,"KEISER      "
"458","033862",70,-92,34.6,"KEO         "
"459","033998",70,-90.43,35.8,"LAKE CITY   "
"460","034106",217,-92.9,36.4,"LEAD HILL   "
"461","034134",80,-92.58,34.17,"LEOLA       "
"462","034248",84,-92.23,34.73,"LITTLE ROCK "
"463","034390",238,-93.25,35.48,"LUTHERVILLE "
"464","034548",98,-93.23,33.28,"MAGNOLIA 3 N"
"465","034562",95,-92.82,34.37,"MALVERN     "
"466","034572",198,-91.53,36.48,"MAMMOTH SPRI"
"467","034638",70,-90.82,34.73,"MARIANNA 2 S"
"468","034654",70,-90.42,35.53,"MARKED TREE "
"469","034666",320,-92.63,35.9,"MARSHALL    "
"470","034756",344,-94.27,34.57,"MENA        "
"471","034900",76,-91.83,33.58,"MONTICELLO 3"
"472","034934",27,-92.45,33.32,"CALION L & D"
"473","034938",101,-92.73,35.13,"MORRILTON   "
"474","034988",201,-93.63,34.55,"MOUNT IDA 3 "
"475","035010",854,-93.68,35.17,"MOUNT MAGAZI"
"476","035036",244,-92.5,36.33,"MOUNTAIN HOM"
"477","035038",244,-92.38,36.33,"MOUNTAIN HOM"
"478","035046",235,-92.08,35.85,"MOUNTAIN VIE"
"479","035079",146,-93.7,34.07,"MURFREESBORO"
"480","035110",131,-93.72,34.15,"NARROWS DAM "
"481","035112",107,-93.85,33.97,"NASHVILLE   "
"482","035186",69,-91.28,35.6,"NEWPORT     "
"483","035200",143,-93.17,34.95,"NIMROD DAM  "
"484","035320",172,-92.27,34.83,"NORTH LITTLE"
"485","035358",244,-93.8,34.63,"ODEN 1 SE   "
"486","035376",91,-93.92,33.77,"OKAY        "
"487","035508",119,-93.82,35.48,"OZARK       "
"488","035562",85,-90.47,36.05,"PARAGOULD   "
"489","035563",82,-90.5,36.03,"PARAGOULD 1 "
"490","035576",125,-93.72,35.3,"PARIS       "
"491","035694",101,-92.82,35,"PERRY       "
"492","035754",66,-92.02,34.22,"PINE BLUFF  "
"493","035756",63,-92,34.25,"PINE BLUFF F"
"494","035820",96,-90.97,36.27,"POCAHONTAS 1"
"495","035866",37,-91.5,33.23,"PORTLAND    "
"496","035908",94,-93.38,33.8,"PRESCOTT    "
"497","036248",424,-94.12,36.33,"ROGERS      "
"498","036253",46,-91.27,33.8,"ROHWER 2NNE "
"499","036352",110,-93.13,35.3,"RUSSELLVILLE"
"500","036376",61,-91.13,34.38,"SAINT CHARLE"
"501","036506",76,-91.73,35.25,"SEARCY      "
"502","036562",64,-92.4,34.28,"SHERIDAN    "
"503","036566",88,-92.35,34.45,"SHERIDAN TOW"
"504","036624",351,-94.55,36.18,"SILOAM SPRIN"
"505","036768",52,-92.85,33.92,"SPARKMAN    "
"506","036804",82,-93.48,33.37,"STAMPS      "
"507","036823",55,-91.78,33.95,"STAR CITY   "
"508","036918",65,-91.53,34.48,"STUTTGART   "
"509","036920",60,-91.42,34.47,"STUTTGART 9 "
"510","036928",152,-93.65,35.3,"SUBIACO     "
"511","037048",112,-94,33.45,"TEXARKANA FA"
"512","037262",637,-93.08,35.67,"TURNPIKE    "
"513","037267",70,-90.25,35.37,"TURRELL     "
"514","037488",206,-94.1,34.9,"WALDRON     "
"515","037530",84,-90.93,36.13,"WALNUT RIDGE"
"516","037582",64,-92.07,33.6,"WARREN 2 WSW"
"517","037712",67,-90.18,35.13,"WEST MEMPHIS"
"518","037772",698,-93.95,35.68,"WHITE ROCK  "
"519","037912",73,-90.03,35.57,"WILSON      "
"520","038052",79,-90.77,35.22,"WYNNE       "
"521","038084",232,-92.68,36.22,"YELLVILLE 2 "
"522","040029",1278,-120.95,41.2,"ADIN        "
"523","040088",134,-123.6,40.18,"ALDERPOINT  "
"524","040133",580,-116.77,32.83,"ALPINE      "
"525","040136",519,-116.78,32.83,"ALPINE      "
"526","040161",1360,-120.53,41.5,"ALTURAS     "
"527","040163",3,-122.12,37.6,"ALVARADO    "
"528","040204",64,-119.48,35.98,"ANGIOLA     "
"529","040212",523,-122.43,38.57,"ANGWIN PAC U"
"530","040227",15,-121.78,38,"ANTIOCH FIBR"
"531","040232",18,-121.73,37.98,"ANTIOCH     "
"532","040343",515,-118.83,36.48,"ASH MOUNTAIN"
"533","040379",607,-119.48,37.08,"AUBERRY 2 NW"
"534","040383",415,-121.07,38.88,"AUBURN      "
"535","040395",6,-118.32,33.35,"AVALON PLEAS"
"536","040418",808,-118.18,34.95,"BACKUS RANCH"
"537","040436",287,-116.07,35.27,"BAKER       "
"538","040437",320,-116.12,35.38,"BAKER 9 NNW "
"539","040442",150,-119.05,35.42,"BAKERSFIELD "
"540","040449",524,-119.08,36.92,"BALCH POWER "
"541","040489",705,-116.88,33.92,"BANNING MUNI"
"542","040514",494,-116.67,32.68,"BARRETT DAM "
"543","040519",653,-117.02,34.9,"BARSTOW     "
"544","040607",930,-116.97,33.98,"BEAUMONT PUM"
"545","040609",790,-116.93,33.93,"BEAUMONT 1 E"
"546","040673",137,-122.08,37.08,"BEN LOMOND N"
"547","040674",153,-122.1,37.08,"BEN LOMOND N"
"548","040693",91,-122.27,37.87,"BERKELEY    "
"549","040705",146,-122.23,38.55,"BERRYESSA LA"
"550","040738",387,-123.25,40.75,"BIG BAR     "
"551","040741",2059,-116.92,34.25,"BIG BEAR LAK"
"552","040742",2080,-116.97,34.23,"BIG BEAR LAK"
"553","040755",1504,-119.25,37.2,"BIG CREEK PH"
"554","040820",2559,-118.6,37.23,"BISHOP CREEK"
"555","040822",1264,-118.42,37.37,"BISHOP AP   "
"556","040824",2864,-118.72,37.37,"BISHOP UNION"
"557","040875",195,-119.87,35.62,"BLACKWELLS C"
"558","040893",1449,-120.7,39.25,"BLUE CANYON "
"559","040897",1610,-120.7,39.28,"BLUE CANYON "
"560","040924",82,-114.6,33.62,"BLYTHE      "
"561","040927",119,-114.72,33.62,"BLYTHE RIVER"
"562","040931",1702,-120.1,39.38,"BOCA        "
"563","040943",2551,-119.02,38.22,"BODIE       "
"564","040968",34,-117.03,32.67,"BONITA      "
"565","040983",235,-116.42,33.27,"BORREGO DESE"
"566","040986",168,-116.33,33.22,"BORREGO SPRI"
"567","041018",1632,-120.65,39.45,"BOWMAN DAM  "
"568","041043",9,-121.7,38.12,"BRANNAN ISLA"
"569","041048",-30,-115.55,32.95,"BRAWLEY 2SW "
"570","041072",1972,-119.23,38.25,"BRIDGEPORT  "
"571","041075",1958,-119.22,38.32,"BRIDGEPORT D"
"572","041112",107,-122.15,38.77,"BROOKS FARNH"
"573","041194",221,-118.37,34.2,"BURBANK VALL"
"574","041206",9,-122.35,37.58,"BURLINGAME  "
"575","041214",953,-121.67,40.88,"BURNEY      "
"576","041244",82,-119.47,35.4,"BUTTONWILLOW"
"577","041252",125,-117.23,32.67,"CABRILLO NAT"
"578","041253",241,-119.97,34.62,"CACHUMA LAKE"
"579","041277",1434,-120.32,38.28,"CALAVERAS BI"
"580","041300",885,-118.68,35.9,"CALIF HOT SP"
"581","041312",110,-122.58,38.58,"CALISTOGA   "
"582","041316",958,-122.8,41.3,"CALLAHAN    "
"583","041424",790,-116.47,32.62,"CAMPO       "
"584","041428",201,-120.85,38.25,"CAMP PARDEE "
"585","041476",1314,-120.87,41.45,"CANBY 3 SW  "
"586","041484",241,-118.57,34.18,"CANOGA PARK "
"587","041488",598,-117.93,35.32,"CANTIL      "
"588","041497",1390,-121.08,40.17,"CANYON DAM  "
"589","041534",131,-121.73,36.48,"CARMEL VALLE"
"590","041588",436,-120.05,37.4,"CATHAY BULL "
"591","041606",915,-123.05,41.1,"CECILVILLE  "
"592","041609",1418,-118.67,36.78,"CEDAR GROVE "
"593","041614",1423,-120.17,41.53,"CEDARVILLE  "
"594","041624",159,-121.67,39.78,"CENTERVILLE "
"595","041697",1455,-119.92,37.97,"CHERRY VALLE"
"596","041700",1382,-121.22,40.3,"CHESTER     "
"597","041715",56,-121.82,39.7,"CHICO UNIV F"
"598","041731",183,-123.58,40.87,"CHINA FLAT  "
"599","041758",17,-117.1,32.6,"CHULA VISTA "
"600","041762",415,-121.15,39.4,"CHUTE CAMP  "
"601","041779",366,-117.72,34.1,"CLAREMONT PO"
"602","041784",3,-121.53,38.42,"CLARKSBURG  "
"603","041806",412,-122.63,38.97,"CLEARLAKE 4 "
"604","041807",406,-122.72,38.98,"CLEARLAKE PA"
"605","041837",98,-123,38.8,"CLOVERDALE 1"
"606","041838",98,-122.98,38.77,"CLOVERDALE  "
"607","041851",122,-119.72,36.87,"CLOVIS      "
"608","041864",202,-120.35,36.15,"COALINGA    "
"609","041867",201,-120.35,36.13,"COALINGA 1 S"
"610","041912",735,-120.95,39.1,"COLFAX      "
"611","041945",18,-122,39.22,"COLUSA BRIDG"
"612","042012",61,-119.57,36.1,"CORCORAN IRR"
"613","042031",214,-117.57,33.87,"CORONA      "
"614","042081",424,-123.28,39.78,"COVELO      "
"615","042092",-46,-116.88,36.53,"COW CREEK   "
"616","042147",12,-124.2,41.77,"CRESCENT CIT"
"617","042148",12,-124.07,41.78,"CRESCENT CIT"
"618","042177",3,-122.22,38.05,"CROCKETT    "
"619","042214",24,-118.38,34.02,"CULVER CITY "
"620","042236",683,-119.62,34.93,"CUYAMA      "
"621","042239",1414,-116.58,32.98,"CUYAMACA    "
"622","042257",588,-116.78,34.87,"DAGGETT (BAR"
"623","042294",18,-121.77,38.53,"DAVIS EXP FA"
"624","042319",-59,-116.87,36.47,"DEATH VALLEY"
"625","042331",1595,-117.98,37.37,"DEEP SPRINGS"
"626","042334",1129,-120.85,39.32,"DEER CREEK P"
"627","042338",1360,-120.83,39.3,"DEER CREEK F"
"628","042362",12,-121.87,36.6,"DEL MONTE   "
"629","042389",37,-120.8,37.53,"DENAIR 3 NNE"
"630","042402",829,-121.62,39.87,"DE SABLA    "
"631","042456",500,-121.2,39.37,"DOBBINS 1 S "
"632","042458",473,-121.2,39.33,"DOBBINS COLG"
"633","042467",1812,-120.23,39.32,"DONNER MEMOR"
"634","042500",885,-120.83,39.57,"DOWNIEVILLE "
"635","042504",1302,-120.1,40.03,"DOYLE       "
"636","042506",1339,-120.08,39.95,"DOYLE 4 SSE "
"637","042516",461,-118.53,34.48,"DRY CANYON R"
"638","042539",915,-120.1,37.75,"DUDLEYS     "
"639","042557",592,-119.12,36.75,"DUNLAP      "
"640","042574",661,-122.27,41.2,"DUNSMUIR TRT"
"641","042580",6,-122.3,38.2,"DUTTONS LAND"
"642","042598",297,-115.45,33.8,"EAGLE MOUNTA"
"643","042640",369,-122.52,39.37,"EAST PARK RE"
"644","042671",2245,-120.03,38.83,"ECHO SUMT SI"
"645","042705",165,-116.93,32.78,"EL CAJON YAL"
"646","042706",123,-116.97,32.82,"EL CAJON    "
"647","042709",186,-116.82,32.88,"EL CAPITAN D"
"648","042713",-15,-115.57,32.78,"EL CENTRO 2 "
"649","042728",218,-120.67,38.33,"ELECTRA PH  "
"650","042749",522,-123.72,42,"ELK VALLEY  "
"651","042756",2928,-119.23,37.93,"ELLERY LAKE "
"652","042771",872,-117.6,34.63,"EL MIRAGE   "
"653","042805",397,-117.35,33.67,"ELSINORE    "
"654","042862",201,-117.08,33.12,"ESCONDIDO   "
"655","042871",229,-117.08,33.15,"ESCONDIDO   "
"656","042910",13,-124.17,40.8,"EUREKA WSO  "
"657","042934",6,-122.05,38.25,"FAIRFIELD   "
"658","042941",933,-118.43,34.7,"FAIRMONT    "
"659","042964",1019,-121.47,41.02,"FALL RIVER M"
"660","043030",3,-124.28,40.6,"FERNDALE 2 N"
"661","043083",101,-120.17,36.33,"FIVE POINTS "
"662","043087",1220,-120.32,40.37,"FLEMING FISH"
"663","043111",76,-121.18,38.68,"FOLSOM      "
"664","043113",107,-121.17,38.7,"FOLSOM DAM  "
"665","043117",473,-117.43,34.13,"FONTANA     "
"666","043120",332,-117.5,34.08,"FONTANA KAIS"
"667","043130",714,-123.33,40.37,"FOREST GLEN "
"668","043157",1373,-120.13,41.85,"FORT BIDWELL"
"669","043161",37,-123.78,39.5,"FORT BRAGG 5"
"670","043164",23,-123.8,39.45,"FORT BRAGG  "
"671","043182",830,-122.85,41.6,"FORT JONES R"
"672","043191",34,-123.25,38.52,"FORT ROSS   "
"673","043257",102,-119.72,36.78,"FRESNO WSO A"
"674","043261",125,-119.72,36.98,"FRIANT GOVER"
"675","043369",2734,-119.13,37.75,"GEM LAKE    "
"676","043384",915,-120.78,38.92,"GEORGETOWN R"
"677","043397",1940,-118.77,36.57,"GIANT FOREST"
"678","043417",59,-121.57,37,"GILROY      "
"679","043463",955,-118.7,35.72,"GLENNVILLE  "
"680","043468",997,-118.73,35.7,"GLENNVILLE M"
"681","043489",148,-114.87,32.88,"GOLD ROCK RA"
"682","043551",2007,-118.97,36.73,"GRANT GROVE "
"683","043571",820,-121.03,39.2,"GRASS VALLEY"
"684","043573",732,-121.07,39.22,"GRASS VALLEY"
"685","043578",64,-122.88,38.43,"GRATON      "
"686","043603",-58,-116.87,36.45,"DEATH VALLEY"
"687","043639",31,-121.7,39.37,"GRIDLEY     "
"688","043647",125,-123.92,40.48,"GRIZZLY CREE"
"689","043710",1168,-117.95,36.13,"HAIWEE      "
"690","043714",12,-122.43,37.47,"HALF MOON BA"
"691","043734",5,-122.5,38.05,"HAMILTON AFB"
"692","043747",75,-119.65,36.3,"HANFORD 1S  "
"693","043761",341,-123.37,41.8,"HAPPY CAMP R"
"694","043791",838,-122.97,40.37,"HARRISON GUL"
"695","043824",921,-121.55,40.93,"HAT CREEK   "
"696","043855",418,-115.63,33.7,"HAYFIELD PUM"
"697","043875",33,-122.87,38.62,"HEALDSBURG  "
"698","043893",58,-120.03,36.48,"HELM 5 SE   "
"699","043914",823,-116.77,33.23,"HENSHAW DAM "
"700","043939",1180,-119.78,37.95,"HETCH HETCHY"
"701","043987",885,-122.63,42,"HILTS SLASH "
"702","044022",85,-121.4,36.85,"HOLLISTER   "
"703","044082",107,-123.67,41.05,"HOOPA       "
"704","044176",2140,-119.22,37.23,"HUNTINGTON L"
"705","044204",808,-120.67,36.42,"IDRIA       "
"706","044211",1647,-116.72,33.75,"IDYLLWILD FI"
"707","044223",-20,-115.57,32.85,"IMPERIAL    "
"708","044224",-18,-115.57,32.83,"IMPERIAL FAA"
"709","044232",1204,-118.2,36.8,"INDEPENDENCE"
"710","044259",-6,-116.27,33.73,"INDIO FIRE S"
"711","044274",1470,-121.53,40,"INSKIP INN  "
"712","044278",744,-117.82,35.65,"INYOKERN    "
"713","044297",287,-115.12,34.15,"IRON MOUNTAI"
"714","044374",1613,-120.3,41.27,"JESS VALLEY "
"715","044418",1116,-116.65,33.1,"JULIAN WYNOL"
"716","044497",458,-120.78,38.37,"KENNEDY MINE"
"717","044500",3,-122.55,37.95,"KENTFIELD   "
"718","044520",296,-118.78,35.47,"KERN RIVER P"
"719","044523",824,-118.43,35.78,"KERN RIVER P"
"720","044534",95,-119.97,36,"KETTLEMAN CI"
"721","044536",155,-120.08,36.07,"KETTLEMAN ST"
"722","044555",98,-121.13,36.2,"KING CITY   "
"723","044577",8,-124.03,41.52,"KLAMATH     "
"724","044590",98,-120.65,37.8,"KNIGHTS FERR"
"725","044647",18,-117.78,33.53,"LAGUNA BEACH"
"726","044671",1595,-117.18,34.23,"LAKE ARROWHE"
"727","044675",1406,-120.22,41.63,"LAKE CITY   "
"728","044679",1421,-119.88,37.97,"LAKE ELEANOR"
"729","044701",409,-122.92,39.05,"LAKEPORT    "
"730","044705",2766,-118.62,37.22,"LAKE SABRINA"
"731","044709",329,-122.38,40.88,"LAKESHORE 2 "
"732","044712",55,-122,38.5,"LAKE SOLANO "
"733","044713",1572,-120.63,39.32,"LAKE SPAULDI"
"734","044714",1562,-120.63,39.33,"LAKE SPAULDI"
"735","044735",177,-117.02,32.77,"LA MESA     "
"736","044747",717,-118.15,34.7,"LANCASTER   "
"737","044749",716,-118.22,34.73,"LANCASTER FO"
"738","044812",156,-121.48,39.68,"LAS PLUMAS  "
"739","044838",1454,-121.52,41.73,"LAVA BEDS NA"
"740","044881",2072,-119.12,37.95,"LEE VINING  "
"741","044884",79,-120.25,37.23,"LE GRAND    "
"742","044890",156,-119.03,36.38,"LEMON COVE  "
"743","044957",128,-119.05,36.18,"LINDSAY     "
"744","044997",146,-121.77,37.67,"LIVERMORE   "
"745","045001",1037,-117.82,34.5,"LLANO       "
"746","045002",1177,-117.73,34.47,"LLANO SHAWNE"
"747","045026",2056,-118.73,36.6,"LODGEPOLE   "
"748","045032",12,-121.28,38.12,"LODI        "
"749","045064",21,-120.47,34.67,"LOMPOC      "
"750","045082",9,-118.2,33.77,"LONG BEACH P"
"751","045085",21,-118.15,33.82,"LONG BEACH D"
"752","045112",85,-118.23,34.07,"LOS ANGELES "
"753","045114",38,-118.38,33.93,"LOS ANGELES "
"754","045115",156,-118.23,34.05,"LOS ANGELES "
"755","045118",40,-120.85,37.05,"LOS BANOS   "
"756","045119",262,-120.92,36.87,"LOS BANOS AR"
"757","045120",125,-120.93,37.02,"LOS BANOS DE"
"758","045123",131,-121.98,37.22,"LOS GATOS   "
"759","045182",866,-116.87,34.5,"LUCERNE VALL"
"760","045194",2367,-119.22,38.03,"LUNDY LAKE  "
"761","045233",92,-120.02,36.97,"MADERA      "
"762","045296",3,-121.57,38.03,"MANDEVILLE I"
"763","045303",12,-121.2,37.78,"MANTECA     "
"764","045311",1784,-121.57,40.53,"MANZANITA LA"
"765","045338",207,-119.38,35.08,"MARICOPA    "
"766","045356",1687,-119.78,38.7,"MARKLEEVILLE"
"767","045360",146,-122.12,38.5,"MARKLEY COVE"
"768","045377",6,-122.13,38.02,"MARTINEZ WAT"
"769","045378",12,-122.12,38.02,"MARTINEZ WAT"
"770","045385",17,-121.6,39.15,"MARYSVILLE  "
"771","045449",991,-122.13,41.25,"MC CLOUD    "
"772","045502",-56,-116.03,33.55,"MECCA FIRE S"
"773","045532",47,-120.52,37.28,"MERCED MUNIC"
"774","045550",366,-120.87,36.72,"MERCEY HOT S"
"775","045602",244,-119.82,35.5,"MIDDLEWATER "
"776","045629",897,-117.03,34.08,"MILL CREEK 2"
"777","045679",1510,-121.57,40.35,"MINERAL     "
"778","045721",1315,-115.53,34.93,"MITCHELL CAV"
"779","045738",28,-121,37.65,"MODESTO     "
"780","045756",834,-118.17,35.05,"MOJAVE      "
"781","045779",1989,-119.15,38.02,"MONO LAKE   "
"782","045783",770,-122.55,41.73,"MONTAGUE/YRE"
"783","045790",73,-118.1,34.03,"MONTEBELLO  "
"784","045795",79,-121.92,36.6,"MONTEREY    "
"785","045866",37,-120.85,35.37,"MORRO BAY FI"
"786","045890",1446,-115.53,35.47,"MOUNTAIN PAS"
"787","045901",2361,-117.62,34.28,"MOUNT BALDY "
"788","045915",661,-121.93,37.87,"MT DIABLO JU"
"789","045933",1284,-121.65,37.33,"MOUNT HAMILT"
"790","045941",1296,-122,41.78,"MOUNT HEBRON"
"791","045978",2568,-116.63,33.8,"MOUNT SAN JA"
"792","045983",1094,-122.32,41.32,"MOUNT SHASTA"
"793","046003",1784,-118.07,34.23,"MOUNT WILSON"
"794","046056",235,-120.88,35.77,"NACIMIENTO D"
"795","046074",11,-122.27,38.28,"NAPA STATE H"
"796","046118",279,-114.62,34.77,"NEEDLES FAA "
"797","046136",793,-121.03,39.27,"NEVADA CITY "
"798","046144",3,-122.03,37.52,"NEWARK      "
"799","046154",659,-119.68,34.95,"NEW CUYAMA F"
"800","046168",27,-121.02,37.32,"NEWMAN      "
"801","046172",238,-120.53,37.95,"NEW MELONES "
"802","046175",3,-117.88,33.6,"NEWPORT BEAC"
"803","046252",802,-119.5,37.23,"NORTH FORK R"
"804","046256",192,-118.4,34.15,"NORTH HOLLYW"
"805","046305",67,-120.87,37.85,"OAKDALE WOOD"
"806","046319",838,-116.8,33.38,"OAK GROVE R "
"807","046332",134,-122.17,37.78,"OAKLAND     "
"808","046335",2,-122.2,37.73,"OAKLAND METR"
"809","046336",9,-122.27,37.8,"OAKLAND MUSE"
"810","046377",18,-117.4,33.22,"OCEANSIDE HA"
"811","046399",229,-119.23,34.45,"OJAI        "
"812","046465",1296,-118.1,34.25,"OPIDS CAMP F"
"813","046476",131,-119.3,36.62,"ORANGE COVE "
"814","046498",49,-124.02,41.37,"ORICK PRAIRI"
"815","046502",168,-122.17,37.87,"ORINDA BOWMA"
"816","046506",77,-122.2,39.75,"ORLAND      "
"817","046508",125,-123.53,41.3,"ORLEANS     "
"818","046521",49,-121.57,39.5,"OROVILLE    "
"819","046522",82,-121.55,39.52,"OROVILLE    "
"820","046523",162,-121.48,39.43,"OROVILLE 7 S"
"821","046569",15,-119.17,34.18,"OXNARD      "
"822","046599",114,-122.48,37.6,"PACIFICA 4 S"
"823","046624",811,-118.12,34.58,"PALMDALE    "
"824","046627",772,-118.08,34.63,"PALMDALE    "
"825","046635",128,-116.55,33.9,"PALM SPRINGS"
"826","046642",18,-122.17,37.43,"PALO ALTO   "
"827","046646",6,-122.13,37.45,"PALO ALTO   "
"828","046657",1708,-116.85,33.35,"PALOMAR MTN "
"829","046678",153,-120.48,36.55,"PANOCHE JUNC"
"830","046685",522,-121.62,39.75,"PARADISE    "
"831","046699",225,-114.17,34.28,"PARKER RESER"
"832","046719",263,-118.15,34.15,"PASADENA    "
"833","046730",213,-120.68,35.63,"PASO ROBLES "
"834","046742",248,-120.65,35.6,"PASO ROBLES "
"835","046773",930,-117.88,34.5,"PEARBLOSSOM "
"836","046816",448,-117.23,33.78,"PERRIS      "
"837","046826",9,-122.65,38.27,"PETALUMA FIR"
"838","046926",398,-121.18,36.48,"PINNACLES NM"
"839","046943",9,-120.63,35.13,"PISMO BEACH "
"840","046960",576,-120.8,38.73,"PLACERVILLE "
"841","046962",842,-120.73,38.73,"PLACERVILLE "
"842","046975",689,-122.88,40.37,"PLATINA     "
"843","047009",61,-123.7,38.92,"POINT ARENA "
"844","047016",18,-120.6,34.55,"POINT ARGUEL"
"845","047017",92,-117.25,32.72,"POINT LOMA N"
"846","047024",21,-121.28,35.67,"POINT PIEDRA"
"847","047027",155,-123.02,38,"POINT REYES "
"848","047050",262,-117.77,34.07,"POMONA CAL P"
"849","047070",15,-122.02,38.02,"PORT CHICAGO"
"850","047077",120,-119.02,36.07,"PORTERVILLE "
"851","047085",1473,-120.47,39.8,"PORTOLA     "
"852","047096",1512,-118.63,35.8,"POSEY 3 E   "
"853","047109",308,-123.13,39.37,"POTTER VALLE"
"854","047150",686,-120.7,36.2,"PRIEST VALLE"
"855","047195",1039,-120.95,39.97,"QUINCY      "
"856","047228",430,-116.88,33.03,"RAMONA FIRE "
"857","047231",451,-116.85,33.07,"RAMONA SPAUL"
"858","047253",1088,-117.65,35.37,"RANDSBURG   "
"859","047290",100,-122.25,40.17,"RED BLUFF 99"
"860","047292",105,-122.25,40.15,"RED BLUFF MU"
"861","047296",220,-122.4,40.58,"REDDING FIRE"
"862","047304",153,-122.3,40.5,"REDDING WSO "
"863","047306",402,-117.18,34.05,"REDLANDS    "
"864","047339",9,-122.23,37.48,"REDWOOD CITY"
"865","047404",152,-123.78,40.03,"RICHARDSON  "
"866","047414",17,-122.35,37.93,"RICHMOND    "
"867","047470",275,-117.35,33.97,"RIVERSIDE   "
"868","047473",319,-117.33,33.97,"RIVERSIDE CI"
"869","047516",73,-121.23,38.8,"ROCKLIN     "
"870","047630",7,-121.5,38.52,"SACRAMENTO E"
"871","047633",23,-121.5,38.58,"SACRAMENTO W"
"872","047641",1934,-120.23,39.43,"SAGEHEN CREE"
"873","047643",79,-122.47,38.5,"SAINT HELENA"
"874","047661",183,-122.12,37.83,"SAINT MARYS "
"875","047668",24,-121.62,36.67,"SALINAS     "
"876","047669",16,-121.67,36.7,"SALINAS MUNI"
"877","047689",1128,-120.22,38.5,"SALT SPRINGS"
"878","047698",189,-123.58,40.88,"SALYER RANGE"
"879","047711",741,-117.67,34.17,"SAN ANTONIO "
"880","047714",323,-121.25,36.02,"SAN ANTONIO "
"881","047723",357,-117.27,34.13,"S BERNARDINO"
"882","047729",24,-117.6,33.43,"SAN CLEMENTE"
"883","047735",1379,-118.73,34.75,"SANDBERG    "
"884","047740",11,-117.17,32.73,"SAN DIEGO LI"
"885","047759",290,-118.47,34.27,"SAN FERNANDO"
"886","047767",6,-122.5,37.77,"SAN FRANCISC"
"887","047769",5,-122.38,37.62,"SAN FRANCISC"
"888","047772",38,-122.42,37.78,"SAN FRANCISC"
"889","047785",122,-118.1,34.1,"SAN GABRIEL "
"890","047807",110,-122.33,37.3,"SAN GREGORIO"
"891","047810",473,-116.97,33.78,"SAN JACINTO "
"892","047821",29,-121.88,37.33,"SAN JOSE    "
"893","047846",79,-121.07,37.05,"SAN LUIS DAM"
"894","047851",96,-120.67,35.3,"SAN LUIS OBI"
"895","047864",9,-122.32,37.57,"SAN MATEO   "
"896","047870",153,-119.47,33.23,"SAN NICHOLAS"
"897","047871",31,-119.5,33.27,"SAN NICHOLAS"
"898","047874",128,-117,33.08,"SAN PASQUAL "
"899","047876",3,-118.27,33.72,"SAN PEDRO   "
"900","047880",9,-122.53,37.97,"SAN RAFAEL C"
"901","047888",40,-117.85,33.77,"SANTA ANA   "
"902","047894",845,-117.07,34.13,"SANTA ANA RI"
"903","047902",2,-119.68,34.42,"SANTA BARBAR"
"904","047905",5,-119.83,34.43,"SANTA BARBAR"
"905","047910",482,-118.4,33.42,"SANTA CATALI"
"906","047912",27,-121.93,37.35,"SANTA CLARA "
"907","047916",40,-122.02,36.98,"SANTA CRUZ  "
"908","047940",67,-120.43,34.95,"SANTA MARIA "
"909","047946",71,-120.42,34.93,"SANTA MARIA "
"910","047953",6,-118.5,34,"SANTA MONICA"
"911","047957",82,-119.07,34.35,"SANTA PAULA "
"912","047965",51,-122.7,38.45,"SANTA ROSA  "
"913","048025",661,-123.13,41.3,"SAWYERS BAR "
"914","048045",42,-124.1,40.48,"SCOTIA      "
"915","048099",192,-121.47,39.42,"OROVILLE 7 S"
"916","048105",1549,-116.95,34.18,"SEVEN OAKS  "
"917","048135",328,-122.42,40.72,"SHASTA DAM  "
"918","048162",17,-124.07,40.03,"SHELTER COVE"
"919","048207",1281,-120.63,39.57,"SIERRA CITY "
"920","048210",336,-118.05,34.17,"SIERRA MADRE"
"921","048218",1519,-120.37,39.58,"SIERRAVILLE "
"922","048250",282,-116.1,35.33,"SILVER LAKE "
"923","048331",2059,-120.38,39.32,"SODA SPRINGS"
"924","048351",21,-122.45,38.28,"SONOMA      "
"925","048353",558,-120.38,37.98,"SONORA RS   "
"926","048380",1568,-119.63,37.5,"SOUTH ENTR Y"
"927","048406",2934,-118.57,37.17,"SOUTH LAKE  "
"928","048446",15,-121.63,36.62,"SPRECKELS HW"
"929","048463",1281,-118.65,36.22,"SPRINGVILLE "
"930","048474",1900,-120.23,39.2,"SQUAW VALLEY"
"931","048479",1745,-117.23,34.23,"SQUIRREL INN"
"932","048557",6,-121.27,37.95,"STOCKTON 2  "
"933","048558",8,-121.25,37.9,"STOCKTON MET"
"934","048560",6,-121.23,37.95,"STOCKTON FIR"
"935","048562",6,-121.38,37.85,"STOCKTON MOW"
"936","048587",241,-122.53,39.58,"STONY GORGE "
"937","048606",1153,-121.1,39.57,"STRAWBERRY V"
"938","048655",433,-117.2,33.72,"SUN CITY    "
"939","048660",445,-118.3,34.27,"SUNLAND     "
"940","048662",534,-118.28,34.25,"SUNLAND TUJU"
"941","048666",31,-122.03,37.37,"SUNNYVALE   "
"942","048702",1264,-120.57,40.38,"SUSANVILLE A"
"943","048748",2288,-117.68,34.38,"TABLE MOUNTA"
"944","048758",1899,-120.13,39.17,"TAHOE CITY  "
"945","048762",1906,-120,38.9,"TAHOE VALLEY"
"946","048781",2458,-119.93,38.6,"TAMARACK    "
"947","048826",1214,-118.47,35.13,"TEHACHAPI   "
"948","048839",434,-118.75,35.03,"TEJON RANCHO"
"949","048873",1617,-120.45,40.87,"TERMO 1 E   "
"950","048892",-35,-116.17,33.63,"PALM SPRINGS"
"951","048914",265,-118.92,36.45,"THREE RIVERS"
"952","048917",348,-118.87,36.47,"THREE RIVERS"
"953","048928",720,-120.48,38.45,"TIGER CREEK "
"954","048973",24,-118.32,33.83,"TORRANCE MUN"
"955","048999",43,-121.42,37.7,"TRACY CARBON"
"956","049001",19,-121.58,37.8,"TRACY PUMPIN"
"957","049024",763,-122.77,40.8,"TRINITY DAM "
"958","049026",567,-122.8,40.72,"TRINITY RIVE"
"959","049035",519,-117.38,35.78,"TRONA       "
"960","049043",1824,-120.18,39.33,"TRUCKEE     "
"961","049053",1232,-121.47,41.97,"TULELAKE    "
"962","049073",35,-120.85,37.48,"TURLOCK "
"963","049083",326,-122.3,40.77,"TURNTABLE CR"
"964","049087",36,-117.78,33.73,"TUSTIN IRVIN"
"965","049099",607,-116.05,34.13,"TWENTYNINE P"
"966","049105",2388,-120.05,38.7,"TWIN LAKES  "
"967","049111",177,-120.32,34.98,"TWITCHELL DA"
"968","049122",193,-123.2,39.15,"UKIAH       "
"969","049152",134,-118.45,34.07,"U C L A     "
"970","049157",561,-117.68,34.13,"UPLAND      "
"971","049158",491,-117.65,34.13,"UPLAND 3 N  "
"972","049173",409,-122.92,39.18,"UPPER LAKE R"
"973","049185",120,-122.17,37.77,"UPR SAN LEAN"
"974","049200",34,-121.95,38.4,"VACAVILLE   "
"975","049250",1098,-117.87,34.45,"VALYERMO FIR"
"976","049251",1129,-117.85,34.45,"VALYERMO FIR"
"977","049325",866,-117.3,34.53,"VICTORVILLE "
"978","049367",107,-119.3,36.33,"VISALIA     "
"979","049378",174,-117.22,33.2,"VISTA 2 NNE "
"980","049390",671,-121.87,40.47,"VOLTA POWER "
"981","049423",58,-122.07,37.9,"WALNUT CREEK"
"982","049440",68,-123,38.72,"WARM SPRINGS"
"983","049447",970,-116.63,33.28,"WARNER SPRIN"
"984","049452",105,-119.33,35.6,"WASCO       "
"985","049473",31,-121.77,36.93,"WATSONVILLE "
"986","049490",625,-122.93,40.73,"WEAVERVILLE "
"987","049499",1107,-122.38,41.42,"WEED FIRE DE"
"988","049540",982,-121.53,39.93,"WEST BRANCH "
"989","049560",87,-119.98,36.22,"WESTHAVEN   "
"990","049599",1549,-121,40.3,"WESTWOOD    "
"991","049612",15,-123.92,39.88,"WHEELER     "
"992","049621",400,-122.53,40.62,"WHISKEYTOWN "
"993","049632",3094,-118.18,37.5,"WHITE MOUNTA"
"994","049633",3801,-118.23,37.58,"WHITE MOUNTA"
"995","049671",1250,-117.18,36.27,"WILDROSE R S"
"996","049677",26,-122.15,39.15,"WILLIAMS    "
"997","049678",39,-122.15,39.1,"WILLIAMS CAA"
"998","049684",412,-123.35,39.42,"WILLITS 1 NE"
"999","049685",580,-123.32,39.35,"W. HOWARD FO"
"1000","049694",140,-123.63,40.95,"WILLOW CREEK"
"1001","049699",71,-122.3,39.52,"WILLOWS 6W  "
"1002","049742",40,-121.97,38.52,"WINTERS     "
"1003","049775",1728,-119.82,38.78,"WOODFORDS   "
"1004","049781",18,-121.77,38.68,"WOODLAND    "
"1005","049792",116,-122.25,37.43,"WOODSIDE FIR"
"1006","049847",122,-117.82,33.88,"YORBA LINDA "
"1007","049855",1209,-119.58,37.75,"YOSEMITE PAR"
"1008","049866",800,-122.63,41.72,"YREKA       "
"1009","049881",1205,-115.82,35.4,"YUCCA GROVE "
"1010","04E01S",1988,-104.433,44.4,"WARREN PEAK "
"1011","050109",1385,-103.15,40.15,"AKRON 4 E   "
"1012","050114",1398,-103.17,40.12,"AKRON WASHIN"
"1013","050125",2297,-105.88,37.47,"ALAMOSA     "
"1014","050130",2298,-105.85,37.43,"ALAMOSA BERG"
"1015","050183",2590,-105.53,40.2,"ALLENSPARK 2"
"1016","050214",1734,-108.38,39.5,"ALTENBERN   "
"1017","050263",2724,-105.88,39,"ANTERO RESER"
"1018","050348",1638,-105.27,40.03,"ARRIBA      "
"1019","050370",2413,-106.83,39.18,"ASPEN       "
"1020","050454",2358,-105.48,39.4,"BAILEY      "
"1021","050674",3448,-105.78,39.8,"BERTHOUD PAS"
"1022","050776",2361,-105.52,37.43,"BLANCA      "
"1023","050810",2044,-106.68,39.88,"BOND        "
"1024","050834",1113,-102.18,39.62,"BONNY DAM   "
"1025","050848",1672,-105.27,40,"BOULDER     "
"1026","050873",1708,-103.8,37.23,"BOX RANCH   "
"1027","050898",1918,-103.88,37.02,"BRANSON     "
"1028","050945",1488,-104.33,40.65,"BRIGGSDALE  "
"1029","050950",1519,-104.83,39.98,"BRIGHTON 1 N"
"1030","051017",1632,-108.92,40.8,"BROWNS PARK "
"1031","051060",2256,-105.28,40.62,"BUCKHORN MTN"
"1032","051071",2434,-106.13,38.83,"BUENA VISTA "
"1033","051121",1272,-102.27,39.3,"BURLINGTON  "
"1034","051179",1586,-104.22,39.7,"BYERS 5 ENE "
"1035","051186",3056,-105.7,39.65,"CABIN CREEK "
"1036","051220",1986,-104.33,39.05,"CALHAN      "
"1037","051268",1311,-102.57,37.02,"CAMPO 7 S   "
"1038","051294",1625,-105.23,38.42,"CANON CITY  "
"1039","051401",1894,-104.87,39.37,"CASTLE ROCK "
"1040","051440",1885,-107.93,38.9,"CEDAREDGE   "
"1041","051458",2339,-106.12,37.75,"CENTER 4 SSW"
"1042","051528",2097,-105.28,39.22,"CHEESMAN    "
"1043","051547",1721,-104.85,39.65,"CHERRY CREEK"
"1044","051564",1295,-102.35,38.82,"CHEYENNE WEL"
"1045","051609",2208,-107.52,38.4,"CIMARRON    "
"1046","051660",3445,-106.2,39.38,"CLIMAX      "
"1047","051713",2438,-106.77,38.43,"COCHETOPA CR"
"1048","051741",1823,-107.97,39.25,"COLLBRAN    "
"1049","051772",1763,-108.73,39.1,"COLORADO    "
"1050","051776",1861,-104.83,38.85,"COLORADO SPR"
"1051","051778",1881,-104.7,38.82,"COLORADO SPR"
"1052","051816",2410,-106.03,37.13,"CONEJOS 3 NN"
"1053","051886",1885,-108.57,37.35,"CORTEZ      "
"1054","051932",1963,-107.6,40.45,"CRAIG 4 SW  "
"1055","051959",2705,-106.97,38.87,"CRESTED BUTT"
"1056","051964",2474,-105.68,37.98,"CRESTONE 1 S"
"1057","051973",2901,-105.18,38.75,"CRIPPLE CREE"
"1058","052178",1552,-104.02,37.63,"DELHI       "
"1059","052184",2402,-106.35,37.67,"DEL NORTE   "
"1060","052192",1562,-108.07,38.75,"DELTA       "
"1061","052220",1615,-104.88,39.77,"DENVER STAPL"
"1062","052225",1611,-105,39.75,"DENVER WSO C"
"1063","052281",2763,-106.03,39.63,"DILLON 1E   "
"1064","052286",1805,-108.97,40.23,"DINOSAUR    "
"1065","052432",2012,-107.88,37.28,"DURANGO     "
"1066","052446",1284,-102.78,38.48,"EADS 2S     "
"1067","052454",1982,-106.83,39.67,"EAGLE COUNTY"
"1068","052557",1662,-105.08,39.75,"EDGEWATER   "
"1069","052593",2071,-104.55,39.22,"ELBERT      "
"1070","052759",2364,-105.52,40.38,"ESTES PARK  "
"1071","052790",2135,-105.32,39.63,"EVERGREEN   "
"1072","052803",1092,-102.07,37.03,"EVERSOLL RAN"
"1073","052932",1519,-103.08,39.32,"FLAGLER 2 NW"
"1074","052955",1583,-105.13,38.38,"FLORENCE    "
"1075","052997",1446,-103.68,38.55,"FORDER 8 S  "
"1076","053002",1789,-104.77,38.68,"FT CARSON BU"
"1077","053005",1525,-105.08,40.58,"FORT COLLINS"
"1078","053016",2321,-108.05,37.23,"FORT LEWIS  "
"1079","053027",1495,-104.72,40.08,"FORT LUPTON "
"1080","053038",1320,-103.8,40.22,"FORT MORGAN "
"1081","053113",2610,-105.83,39.95,"FRASER      "
"1082","053146",1366,-108.75,39.17,"FRUITA 1W   "
"1083","053232",2312,-106,37.72,"GARNETT     "
"1084","053246",1391,-108.98,38.68,"GATEWAY 1 SE"
"1085","053261",2614,-105.7,39.7,"GEORGETOWN  "
"1086","053359",1800,-107.32,39.52,"GLENWOOD SPR"
"1087","053488",1479,-108.53,39.12,"GRAND JUNCTI"
"1088","053489",1409,-108.58,39.07,"GRAND JUNCTI"
"1089","053496",2556,-105.83,40.27,"GRAND LAKE 1"
"1090","053500",2556,-105.85,40.25,"GRAND LAKE 6"
"1091","053508",1552,-108.05,39.45,"GRAND VALLEY"
"1092","053530",2650,-105.68,39.47,"GRANT       "
"1093","053541",2475,-105.53,37.72,"GREAT SAND D"
"1094","053546",1418,-104.68,40.42,"GREELEY     "
"1095","053553",1418,-104.7,40.42,"GREELEY UNC "
"1096","053592",2367,-106.33,39.88,"GREEN MT DAM"
"1097","053609",2074,-108.67,40.62,"GREYSTONE   "
"1098","053643",1549,-104.42,40.87,"GROVER 10 W "
"1099","053662",2329,-106.97,38.53,"GUNNISON 3SW"
"1100","053867",1943,-107.25,40.48,"HAYDEN      "
"1101","053951",2743,-107.13,37.77,"HERMIT 7ESE "
"1102","054054",2365,-106,40.97,"HOHNHOLZ RAN"
"1103","054076",1033,-102.12,38.05,"HOLLY       "
"1104","054082",1137,-102.3,40.58,"HOLYOKE     "
"1105","054129",2318,-106.13,40.05,"HOT SULPHUR "
"1106","054135",2902,-105.6,40.63,"HOURGLASS RE"
"1107","054234",2306,-105.52,39.75,"IDAHO SPRING"
"1108","054242",1211,-102.27,39.77,"IDALIA      "
"1109","054250",1958,-107.63,37.13,"IGNACIO 1 N "
"1110","054346",2309,-105.63,37,"JAROSO      "
"1111","054380",1302,-102.68,39.65,"JOES 2 SE   "
"1112","054388",1162,-102.93,38.07,"JOHN MARTIN "
"1113","054397",3148,-105.85,39.77,"JONES PASS 2"
"1114","054413",1058,-102.25,41,"JULESBURG   "
"1115","054444",1549,-103.53,38.73,"KARVAL      "
"1116","054452",1677,-105.1,39.5,"KASSLER     "
"1117","054460",1601,-103.9,40.85,"KAUFFMAN 4 S"
"1118","054538",1570,-103.32,37.45,"KIM 15 NNE  "
"1119","054546",1615,-103.3,37.12,"KIM 10 SSE  "
"1120","054603",1305,-102.78,38.77,"KIT CARSON  "
"1121","054664",2233,-106.4,40.07,"KREMMLING   "
"1122","054720",1279,-103.52,38.05,"LA JUNTA 4 N"
"1123","054726",1292,-103.48,37.72,"LA JUNTA 20 "
"1124","054734",2711,-107.32,38.05,"LAKE CITY   "
"1125","054742",2593,-105.48,38.92,"LAKE GEORGE "
"1126","054750",3132,-104.98,38.82,"LAKE MORAINE"
"1127","054762",1718,-105.13,39.75,"LAKEWOOD    "
"1128","054770",1106,-102.62,38.08,"LAMAR       "
"1129","054834",1186,-103.22,38.07,"LAS ANIMAS  "
"1130","054884",3103,-106.3,39.25,"LEADVILLE   "
"1131","054885",3032,-106.32,39.23,"LEADVILLE LA"
"1132","054934",2464,-107.65,37.38,"LEMON DAM   "
"1133","054945",1339,-103.02,40.48,"LEROY 5 WSW "
"1134","055015",1635,-103.73,39.2,"LIMON 10 SSW"
"1135","055017",1636,-103.68,39.27,"LIMON       "
"1136","055018",1695,-103.7,39.18,"LIMON       "
"1137","055048",1871,-108.2,40,"LITTLE HILLS"
"1138","055056",1620,-105.02,39.62,"LITTLETON   "
"1139","055108",1601,-103.48,38.93,"LONG BRANCH "
"1140","055116",1510,-105.07,40.17,"LONGMONT 2 E"
"1141","055141",2745,-105.57,40.28,"LONGS PEAK  "
"1142","055322",2344,-105.95,37.17,"MANASSA     "
"1143","055408",2217,-107.55,40.02,"MARVINE     "
"1144","055414",2377,-107.47,40.03,"MARVINE RANC"
"1145","055422",1885,-108.6,40.28,"MASSADONA 3 "
"1146","055446",1806,-108.08,40.52,"MAYBELL     "
"1147","055484",1903,-107.9,40.03,"MEEKER 3 W  "
"1148","055487",1937,-107.92,40.03,"MEEKER NO 2 "
"1149","055489",1983,-108,40.13,"MEEKER 10 NW"
"1150","055507",2379,-106.75,39.37,"MEREDITH    "
"1151","055531",2123,-108.5,37.2,"MESA VERDE  "
"1152","055706",2339,-106.15,37.57,"MONTE VISTA "
"1153","055722",1763,-107.88,38.48,"MONTROSE "
"1154","055730",2239,-104.92,39.08,"MONUMENT 2 W"
"1155","055734",2158,-104.87,39.1,"MONUMENT    "
"1156","055797",3240,-105.6,39.65,"MT EVANS    "
"1157","055878",2512,-105.5,39.98,"NEDERLAND 2 "
"1158","055922",1458,-103.85,40.6,"NEW RAYMER  "
"1159","055934",1579,-103.77,40.93,"NEW RAYMER 2"
"1160","055970",1976,-109.03,37.82,"NORTHDALE   "
"1161","055984",1635,-105.02,39.9,"NORTHGLENN  "
"1162","055990",2684,-105.05,37.22,"NORTH LAKE  "
"1163","056012",2139,-108.28,38.13,"NORWOOD     "
"1164","056023",1580,-104.78,40.7,"NUNN        "
"1165","056131",1315,-103.75,38.22,"ORDWAY 2 ENE"
"1166","056136",1453,-103.7,38.52,"ORDWAY 21 N "
"1167","056203",2355,-107.68,38.02,"OURAY       "
"1168","056258",2169,-107.02,37.27,"PAGOSA SPRIN"
"1169","056266",1440,-108.35,39.1,"PALISADE    "
"1170","056271",2406,-107.18,37.45,"PALISADE LAK"
"1171","056280",2220,-104.92,39.12,"PALMER LAKE "
"1172","056306",1733,-107.58,38.87,"PAONIA 1 SW "
"1173","056307",1884,-107.58,38.85,"PAONIA 1 SW "
"1174","056315",1610,-108.95,38.37,"PARADOX     "
"1175","056318",1686,-108.98,38.38,"PARADOX 1 W "
"1176","056326",1922,-104.65,39.52,"PARKER 6 E  "
"1177","056382",2593,-106.57,40.97,"PEARL       "
"1178","056513",2804,-106.53,38.6,"PITKIN      "
"1179","056559",3013,-106.5,37.37,"PLATORO     "
"1180","056740",1415,-104.5,38.28,"PUEBLO MEMOR"
"1181","056765",1480,-104.72,38.27,"PUEBLO RESER"
"1182","056767",1498,-104.65,38.18,"PUEBLO 6 SSW"
"1183","056820",2630,-106.17,40.43,"RAND        "
"1184","056832",1610,-108.8,40.08,"RANGELY 1 E "
"1185","056925",2550,-105.6,40.8,"RED FEATHER "
"1186","056970",2461,-107.3,39.2,"REDSTONE 4 W"
"1187","056977",2408,-105.32,37.72,"RED WING 1 W"
"1188","057017",2690,-108.03,37.68,"RICO        "
"1189","057020",2133,-107.75,38.15,"RIDGWAY     "
"1190","057031",1616,-107.78,39.52,"RIFLE       "
"1191","057050",2898,-107.27,37.72,"RIO GRANDE R"
"1192","057167",1271,-103.7,38.03,"ROCKY FORD 2"
"1193","057287",1833,-104.08,38.87,"RUSH        "
"1194","057309",2758,-104.98,38.85,"RUXTON PARK "
"1195","057315",2071,-104.93,37.92,"RYE         "
"1196","057337",2345,-106.13,38.08,"SAGUACHE    "
"1197","057370",2182,-106.02,38.53,"SALIDA      "
"1198","057371",2282,-106.05,38.53,"SALIDA 3 W  "
"1199","057430",2448,-105.4,37.18,"SAN LUIS 2 S"
"1200","057433",2297,-105.8,37.65,"SAN LUIS LAK"
"1201","057455",2379,-107.17,38.47,"SAPINERO 8 E"
"1202","057456",2837,-107.47,38.47,"SAPINERO 9 W"
"1203","057513",1092,-102.52,40.93,"SEDGWICK    "
"1204","057515",1216,-102.52,40.85,"SEDGWICK 5 S"
"1205","057557",1579,-103.35,39.55,"SHAW 2 E    "
"1206","057572",2363,-105.23,37.72,"SHEEP MOUNTA"
"1207","057656",2873,-107.67,37.8,"SILVERTON   "
"1208","057848",2532,-106.42,40.48,"SPICER      "
"1209","057866",1396,-102.7,37.38,"SPRINGFIELD "
"1210","057867",1373,-102.62,37.28,"SPRINGFIELD "
"1211","057928",2031,-107.27,37.22,"STATE TURKEY"
"1212","057936",2085,-106.83,40.5,"STEAMBOAT SP"
"1213","057950",1202,-103.2,40.62,"STERLING    "
"1214","058008",1342,-102.58,39.3,"STRATTON    "
"1215","058022",1780,-105.12,39.43,"STRONTIA SPR"
"1216","058064",3049,-106.37,39.25,"SUGARLOAF RE"
"1217","058100",1787,-108.27,40.5,"SUNBEAM 7 SW"
"1218","058157",1525,-104.12,38.42,"TACONY 10 SE"
"1219","058184",2809,-106.62,38.82,"TAYLOR PARK "
"1220","058204",2643,-107.87,37.95,"TELLURIDE   "
"1221","058290",1472,-103.92,37.67,"TIMPAS 13 SW"
"1222","058429",1838,-104.48,37.17,"TRINIDAD    "
"1223","058434",1753,-104.33,37.25,"TRINIDAD LAS"
"1224","058501",2837,-106.32,39.08,"TWIN LAKES  "
"1225","058510",1238,-102.38,37.55,"TWO BUTTES  "
"1226","058560",1531,-108.73,38.37,"URAVAN      "
"1227","058575",2507,-106.37,39.63,"VAIL        "
"1228","058582",2332,-107.58,37.37,"VALLECITO DA"
"1229","058742",2593,-106.83,37.8,"WAGON WHEEL "
"1230","058756",2471,-106.27,40.73,"WALDEN      "
"1231","058781",1897,-104.8,37.62,"WALSENBURG  "
"1232","058793",1214,-102.28,37.4,"WALSH 1 W   "
"1233","058839",1586,-105.2,40.42,"WATERDALE   "
"1234","058931",2396,-105.48,38.13,"WESTCLIFFE  "
"1235","058986",1920,-105.08,38.17,"WETMORE 2 S "
"1236","059025",1437,-104.18,40.15,"WIGGINS 7 SW"
"1237","059096",2332,-106.22,40.03,"WILLIAMS FOR"
"1238","059103",2211,-107.27,40.3,"WILLOW CREEK"
"1239","059181",3243,-106.78,37.48,"WOLF CREEK P"
"1240","059183",2876,-106.87,37.48,"WOLF CREEK P"
"1241","059243",1077,-102.23,40.07,"WRAY        "
"1242","059265",2405,-106.9,40.15,"YAMPA       "
"1243","059275",2092,-108.73,37.55,"YELLOW JACKE"
"1244","059295",1260,-102.73,40.12,"YUMA        "
"1245","05G05S",2409,-105.583,42.283,"WINDY PEAK  "
"1246","05J04S",2753,-105.848,40.399,"PHANTOM VALL"
"1247","05J10S",3262,-105.82,40.414,"LAKE IRENE  "
"1248","05J12S",2659,-105.92,40.225,"STILLWATER C"
"1249","05J40S",3262,-105.733,40.432,"WILLOW PARK "
"1250","05J41S",2957,-105.59,39.937,"LAKE ELDORA "
"1251","05K06S",2951,-105.761,39.916,"ARROW       "
"1252","05K09S",3384,-105.87,39.646,"GRIZZLY PEAK"
"1253","05K14S",3445,-105.778,39.804,"BERTHOUD SUM"
"1254","05M14S",3116,-105.122,37.214,"WHISKEY CK  "
"1255","05N11S",3003,-105.341,36.699,"RED RIVER PA"
"1256","05N16S",3232,-105.25,37,"NORTH COSTIL"
"1257","05N18S",2988,-105.558,36.194,"GALLEGOS PEA"
"1258","05P02S",2561,-105.664,35.829,"PANCHUELA   "
"1259","060801",43,-73.2,41.2,"BRIDGEPORT  "
"1260","060806",8,-73.13,41.17,"BRIDGEPORT S"
"1261","060961",79,-73.48,41.65,"BULLS BRIDGE"
"1262","060973",155,-72.93,41.8,"BURLINGTON  "
"1263","061488",49,-72.52,41.47,"COCKAPONSET "
"1264","061499",134,-72.33,41.58,"COLCHESTER 2"
"1265","061689",146,-72.35,41.8,"COVENTRY    "
"1266","061715",397,-73.32,41.9,"CREAM HILL  "
"1267","061762",156,-73.47,41.38,"DANBURY     "
"1268","062658",168,-73.37,41.95,"FALLS VILLAG"
"1269","063207",12,-72.05,41.35,"GROTON      "
"1270","063451",6,-72.65,41.73,"HARTFORD BRA"
"1271","063456",65,-72.68,41.93,"HARTFORD BRA"
"1272","064488",76,-72.18,41.75,"MANSFIELD HO"
"1273","064767",112,-72.72,41.55,"MIDDLETOWN 4"
"1274","065077",55,-72.9,41.4,"MOUNT CARMEL"
"1275","065266",7,-72.93,41.3,"NEW HAVEN   "
"1276","065273",4,-72.88,41.27,"NEW HAVEN TW"
"1277","065309",5,-72.1,41.35,"NEW LONDON  "
"1278","065445",409,-73.22,41.97,"NORFOLK 2 SW"
"1279","065892",37,-73.45,41.13,"NORWALK     "
"1280","065893",11,-73.42,41.12,"NORWALK GAS "
"1281","065910",6,-72.07,41.53,"NORWICH PUB "
"1282","066645",73,-71.92,41.9,"PUTNAM      "
"1283","067109",329,-73.45,41.98,"SALISBURY   "
"1284","067373",256,-73.3,41.72,"SHEPAUG DAM "
"1285","067970",58,-73.55,41.13,"STAMFORD 5N "
"1286","068138",198,-72.25,41.8,"STORRS      "
"1287","068859",189,-73.32,41.63,"WASHINGTON  "
"1288","068906",104,-73.03,41.55,"WATERBURY AN"
"1289","069067",12,-72.43,41.3,"WESTBROOK   "
"1290","069388",110,-71.9,41.95,"WEST THOMPSO"
"1291","069568",183,-73.13,41.67,"WIGWAM RESER"
"1292","06G01S",2393,-106.317,42.733,"CASPER MTN. "
"1293","06H09S",2820,-106.933,41.167,"WEBBER SPRIN"
"1294","06H10S",3024,-107.9667,41.15,"OLD BATTLE  "
"1295","06H13S",3116,-106.233,41.367,"BROOKLYN LAK"
"1296","06H19S",2573,-106.5,41.333,"SOUTH BRUSH "
"1297","06H20S",3088,-106.367,41.333,"NORTH FRENCH"
"1298","06H22S",2729,-106.9,41,"WHISKEY PARK"
"1299","06H23S",3064,-106.283,41.467,"SAND LAKE   "
"1300","06J01S",2561,-106.781,40.534,"DRY LAKE    "
"1301","06J03S",2793,-106.604,40.395,"COLUMBINE   "
"1302","06J05S",2909,-106.094,40.347,"WILLOW CREEK"
"1303","06J06S",2707,-106.67,40.08,"LYNX PASS   "
"1304","06J09S",2866,-106.74,40.368,"RABBIT EARS "
"1305","06J15S",2652,-106.969,40.848,"ELK RIVER   "
"1306","06J29S",3201,-106.677,40.537,"TOWER       "
"1307","06K01S",3476,-106.06,39.361,"HOOSIER PASS"
"1308","06K04S",3232,-106.612,39.075,"INDEPENDENCE"
"1309","06K06S",2652,-106.608,39.298,"NAST LAKE   "
"1310","06K08S",3476,-106.197,39.38,"FREMONT PASS"
"1311","06K14S",2866,-106.158,39.718,"SUMMIT RANCH"
"1312","06K24S",3201,-106.171,39.489,"COPPER MOUNT"
"1313","06K30S",2927,-106.615,39.317,"KILN        "
"1314","06K39S",3140,-106.38,39.617,"VAIL MOUNTAI"
"1315","06K40S",3232,-106.542,39.088,"BRUMLEY     "
"1316","06L02S",2927,-106.59,38.82,"PARK CONE   "
"1317","06L03S",3280,-106.34,38.489,"PORPHYRY CRE"
"1318","06L11S",3098,-106.953,38.894,"BUTTE       "
"1319","06M03S",3088,-106.835,37.486,"UPPER SAN JU"
"1320","06M17S",3354,-106.802,37.479,"WOLF CREEK S"
"1321","06M22S",3055,-106.452,37.019,"CUMBRES TRES"
"1322","06M23S",3354,-106.548,37.379,"LILY POND   "
"1323","06N03S",2561,-106.657,36.956,"CHAMITA     "
"1324","06N04S",2835,-106.321,36.512,"BATEMAN     "
"1325","06N14S",3049,-106.263,36.716,"HOPEWELL    "
"1326","06P01S",2896,-106.392,35.922,"QUEMAZON    "
"1327","06P10S",2622,-106.834,36.002,"SENORITA DIV"
"1328","071330",15,-75.63,38.73,"BRIDGEVILLE "
"1329","072625",3,-75.58,39.57,"DELAWARE CIT"
"1330","072730",9,-75.52,39.15,"DOVER       "
"1331","073570",15,-75.47,38.63,"GEORGETOWN 5"
"1332","073595",14,-75.58,38.83,"GREENWOOD 2N"
"1333","075320",3,-75.13,38.77,"LEWES       "
"1334","075852",18,-75.7,39.42,"MIDDLETOWN 3"
"1335","075915",9,-75.47,38.9,"MILFORD 4SE "
"1336","076020",6,-75.32,38.58,"MILLSBORO   "
"1337","076410",27,-75.73,39.67,"NEWARK UNIV "
"1338","078269",9,-75.22,38.47,"SELBYVILLE  "
"1339","079595",24,-75.6,39.67,"WILMINGTN NE"
"1340","079605",82,-75.53,39.77,"WILMINGTON P"
"1341","07E21S",2860,-107.85,44.8,"BALD MTN.   "
"1342","07E23S",2921,-107.433,44.5,"SHELL CREEK "
"1343","07F02S",2366,-107.183,43.633,"MIDDLE POWDE"
"1344","07H03S",2485,-107.167,41.117,"SANDSTONE RS"
"1345","07H04S",2268,-107.267,41.05,"BATTLE MOUNT"
"1346","07H05S",2701,-107.167,41.3,"DIVIDE PEAK "
"1347","07J04S",2774,-107.058,40.167,"CROSHO      "
"1348","07J05S",3152,-107.294,40.108,"RIPPLE CREEK"
"1349","07K01S",3810,-105.26,36.994,"NORTH LOST T"
"1350","07K02S",2866,-107.599,39.875,"BURRO MOUNTA"
"1351","07K06S",3037,-107.874,39.046,"PARK RESERVO"
"1352","07K09S",2896,-107.288,39.129,"MC CLURE PAS"
"1353","07K11S",3262,-107.049,39.015,"SCHOFIELD PA"
"1354","07K12S",3317,-107.357,39.765,"BISON LAKE  "
"1355","07K13S",2957,-107.236,39.999,"TRAPPER LAKE"
"1356","07M05S",2707,-107.805,37.651,"CASCADE     "
"1357","07M11S",3250,-107.777,37.699,"SPUD MOUNTAI"
"1358","07M12S",3201,-107.689,37.749,"MOLAS LAKE  "
"1359","07M14S",3061,-107.727,37.847,"MINERAL CREE"
"1360","07M21S",3430,-107.035,37.62,"MIDDLE CREEK"
"1361","07M27S",2988,-107.675,37.934,"IDARADO     "
"1362","07M29S",3110,-107.924,37.799,"LIZARD HEAD "
"1363","07M30S",3488,-107.204,37.992,"SLUMGULLION "
"1364","07M31S",3317,-107.507,37.485,"VALLECITO   "
"1365","07M32S",3537,-107.512,37.714,"BEARTOWN    "
"1366","07M33S",3399,-107.713,37.892,"RED MOUNTAIN"
"1367","07M34S",3415,-107.633,37.476,"STUMP LAKES "
"1368","07S04S",2591,-107.831,33.36,"LOOKOUT MOUN"
"1369","080070",15,-81.57,29.08,"ALEXANDER SP"
"1370","080211",6,-85.03,29.73,"APALACHICOLA"
"1371","080228",19,-81.85,27.23,"ARCADIA     "
"1372","080236",43,-81.35,27.18,"ARCHBOLD    "
"1373","080369",46,-81.5,27.6,"AVON PARK 2 "
"1374","080478",38,-81.85,27.9,"BARTOW      "
"1375","080535",3,-82.65,28.53,"BAYPORT     "
"1376","080611",5,-80.63,26.65,"BELLE GLADE "
"1377","080804",15,-85.03,30.43,"BLOUNTSTOWN "
"1378","080940",6,-82.58,27.48,"BRADENTON EX"
"1379","080945",6,-82.47,27.45,"BRADENTON 5 "
"1380","081046",85,-82.37,28.62,"BROOKSVILLE "
"1381","081163",23,-82.08,28.67,"BUSHNELL 2 E"
"1382","081218",58,-81.98,29.98,"CAMP BLANDIN"
"1383","081276",9,-80.63,26.87,"CANAL POINT "
"1384","081356",9,-84.67,29.85,"CARRABELLE 1"
"1385","081432",6,-83.03,29.13,"CEDAR KEY 1 "
"1386","081544",40,-85.48,30.78,"CHIPLEY 3 E "
"1387","081632",9,-82.8,27.95,"CLEARWATER  "
"1388","081641",40,-81.78,28.48,"CLERMONT 7 S"
"1389","081654",6,-80.92,26.75,"CLEWISTON US"
"1390","081716",3,-80.28,25.65,"MIAMI 12 SSW"
"1391","081775",64,-85.4,30.6,"COMPASS LAKE"
"1392","081795",2,-80.88,24.78,"DUCK KEY    "
"1393","081896",40,-87.33,30.45,"COTTAGE HILL"
"1394","081978",15,-81.52,29.42,"CRESCENT CIT"
"1395","081984",73,-86.58,30.77,"CRESTVIEW RA"
"1396","081986",83,-86.57,30.8,"CRESTVIEW SI"
"1397","082008",15,-83.12,29.63,"CROSS CITY 2"
"1398","082011",14,-83.1,29.63,"CROSS CITY F"
"1399","082137",49,-81.6,28.15,"DAVENPORT   "
"1400","082140",3,-80.22,26.05,"DAVIE       "
"1401","082158",10,-81.05,29.18,"DAYTONA BEAC"
"1402","082220",70,-86.07,30.73,"DE FUNIAK SP"
"1403","082229",12,-81.28,29.02,"DELAND 1 SSE"
"1404","082298",6,-81.13,26.6,"DEVILS GARDE"
"1405","082418",3,-82.87,24.63,"DRY TORTUGAS"
"1406","082827",27,-81.68,28.83,"EUSTIS 2 S  "
"1407","082850",2,-81.38,25.85,"EVERGLADES  "
"1408","082915",2,-81.53,29.75,"FEDERAL POIN"
"1409","082936",9,-80.6,27.77,"FELLSMERE 7 "
"1410","082944",4,-81.47,30.65,"FERNANDINA B"
"1411","083020",1,-80.92,25.15,"FLAMINGO RAN"
"1412","083137",18,-80.8,27.53,"FORT DRUM 5 "
"1413","083163",5,-80.2,26.1,"FORT LAUDERD"
"1414","083168",3,-80.12,26.12,"FORT LAUDERD"
"1415","083171",3,-80.23,26.1,"FORT LAUDERD"
"1416","083186",5,-81.87,26.6,"FORT MYERS F"
"1417","083207",8,-80.35,27.47,"FORT PIERCE "
"1418","083230",43,-85.43,30.43,"FOUNTAIN 3 S"
"1419","083316",52,-82.35,29.65,"GAINESVILLE "
"1420","083321",43,-82.37,29.63,"GAINESVILLE "
"1421","083326",44,-82.27,29.68,"GAINESVILLE "
"1422","083470",43,-82.17,30.25,"GLEN ST MARY"
"1423","083852",3,-81.58,29.8,"HASTINGS    "
"1424","083874",3,-81.5,29.72,"HASTINGS ARC"
"1425","083909",4,-80.28,25.83,"HIALEAH     "
"1426","083956",21,-82.6,29.83,"HIGH SPRINGS"
"1427","083978",21,-81.93,30.7,"HILLIARD    "
"1428","084091",3,-80.5,25.5,"HOMESTEAD EX"
"1429","084198",3,-80.05,26.55,"HYPOLUXO    "
"1430","084210",12,-81.43,26.47,"IMMOKALEE 3 "
"1431","084242",37,-81.32,27.8,"INDIAN LAKE "
"1432","084289",12,-82.32,28.73,"INVERNESS 3S"
"1433","084358",12,-81.65,30.42,"JACKSONVILLE"
"1434","084366",3,-81.4,30.28,"JACKSONVILLE"
"1435","084394",43,-82.8,30.5,"JASPER      "
"1436","084570",1,-81.75,24.55,"KEY WEST WSO"
"1437","084575",9,-81.8,24.55,"KEY WEST WB "
"1438","084620",21,-81.42,28.3,"KISSIMMEE CI"
"1439","084625",21,-81.4,28.3,"KISSIMMEE 2 "
"1440","084662",4,-81.43,26.77,"LA BELLE    "
"1441","084707",46,-81.73,28.08,"LAKE ALFRED "
"1442","084731",59,-82.6,30.18,"LAKE CITY 2E"
"1443","084771",37,-81.47,28.53,"LAKE HIAWASS"
"1444","084797",73,-81.95,28.03,"LAKELAND    "
"1445","084845",43,-81.37,27.28,"LAKE PLACID "
"1446","085076",21,-81.8,28.88,"LISBON      "
"1447","085099",31,-82.97,30.28,"LIVE OAK    "
"1448","085182",3,-80.27,26.68,"LOXAHATCHEE "
"1449","085275",55,-83.43,30.53,"MADISON 4N  "
"1450","085351",3,-81,24.73,"MARATHON SHO"
"1451","085367",38,-85.18,30.83,"MARIANNA    "
"1452","085372",52,-85.27,30.77,"MARIANNA SCH"
"1453","085539",21,-83.23,30.1,"MAYO        "
"1454","085612",8,-80.63,28.1,"MELBOURNE RE"
"1455","085622",40,-82.05,29.7,"MELROSE     "
"1456","085643",3,-80.7,28.28,"MERRITT ISLA"
"1457","085653",3,-80.18,25.78,"MIAMI BAYFRO"
"1458","085658",2,-80.13,25.78,"MIAMI BEACH "
"1459","085663",7,-80.28,25.82,"MIAMI INTL A"
"1460","085678",3,-80.3,25.65,"MIAMI 12 SSW"
"1461","085719",3,-81.35,26.18,"MILES CITY T"
"1462","085793",66,-87.15,30.78,"MILTON EXPER"
"1463","085879",64,-83.87,30.53,"MONTICELLO 3"
"1464","085895",6,-81.08,26.83,"MOORE HAVEN "
"1465","085973",49,-81.6,27.93,"MOUNTAIN LAK"
"1466","085990",92,-84.7,30.67,"MOUNT PLEASA"
"1467","086065",6,-82.32,27.23,"MYAKKA RIVER"
"1468","086078",3,-81.82,26.12,"NAPLES      "
"1469","086210",3,-80.95,29.08,"NEW SMYRNA B"
"1470","086240",18,-86.5,30.52,"NICEVILLE   "
"1471","086406",2,-81.03,25.85,"OASIS RANGER"
"1472","086414",23,-82.08,29.2,"OCALA       "
"1473","086419",26,-82.15,29.18,"OCALA 2 NE  "
"1474","086485",9,-80.8,27.22,"OKEECHOBEE  "
"1475","086628",29,-81.32,28.45,"ORLANDO INTL"
"1476","086638",34,-81.33,28.55,"ORLANDO HERN"
"1477","086753",6,-81.63,29.65,"PALATKA     "
"1478","086836",6,-85.7,30.17,"PANAMA CITY "
"1479","086841",12,-85.67,30.17,"PANAMA CITY "
"1480","086842",10,-85.6,30.22,"PANAMA CITY "
"1481","086880",12,-82.42,27.58,"PARRISH     "
"1482","086997",34,-87.2,30.47,"PENSACOLA FA"
"1483","087002",16,-87.22,30.42,"PENSACOLA   "
"1484","087020",3,-80.43,25.58,"PERRINE 4W  "
"1485","087025",14,-83.57,30.08,"PERRY       "
"1486","087205",37,-82.13,28.02,"PLANT CITY  "
"1487","087254",5,-80.15,26.23,"POMPANO BEAC"
"1488","087395",3,-82.05,26.93,"PUNTA GORDA "
"1489","087397",3,-81.97,26.97,"PUNTA GORDA "
"1490","087424",76,-84.58,30.58,"QUINCY EXPER"
"1491","087429",76,-84.55,30.6,"QUINCY 3 SSW"
"1492","087440",37,-82.18,30.07,"RAIFORD STAT"
"1493","087760",3,-80.6,25.38,"ROYAL PALM R"
"1494","087812",3,-81.32,29.9,"ST AUGUSTINE"
"1495","087851",58,-82.27,28.33,"SAINT LEO   "
"1496","087867",6,-84.17,30.08,"ST MARKS 5 S"
"1497","087886",11,-82.63,27.78,"ST PETERSBUR"
"1498","087950",12,-84.6,30.07,"SANBORN TOWE"
"1499","087977",9,-81.27,28.8,"SANFORD EXPR"
"1500","087982",3,-81.25,28.8,"SANFORD EXPR"
"1501","088021",3,-82.57,27.33,"SARASOTA    "
"1502","088024",9,-82.47,27.33,"SARASOTA 5 E"
"1503","088290",18,-84.67,30.2,"SMITH CREEK "
"1504","088396",3,-80.33,25.75,"SOUTH MIAMI "
"1505","088527",46,-82.1,29.93,"STARKE      "
"1506","088565",3,-83.4,29.67,"STEINHATCHEE"
"1507","088620",3,-80.25,27.2,"STUART 1 N  "
"1508","088758",17,-84.37,30.38,"TALLAHASSEE "
"1509","088780",3,-80.83,25.75,"TAMIAMI TRAI"
"1510","088788",11,-82.53,27.97,"TAMPA INTL A"
"1511","088824",2,-82.75,28.15,"TARPON SPRIN"
"1512","088841",2,-80.52,25.02,"TAVERNIER   "
"1513","088942",2,-80.82,28.62,"TITUSVILLE  "
"1514","089120",9,-82.82,29.42,"USHER TOWER "
"1515","089176",3,-82.45,27.1,"VENICE      "
"1516","089206",15,-85.72,30.63,"VERNON      "
"1517","089214",8,-80.42,27.65,"VERO BEACH M"
"1518","089219",6,-80.45,27.63,"VERO BEACH 4"
"1519","089401",37,-81.82,27.57,"WAUCHULA    "
"1520","089430",6,-82.58,28.52,"WEEKI WACHEE"
"1521","089520",6,-80.05,26.72,"WEST PALM BE"
"1522","089525",6,-80.1,26.68,"W PALM BEACH"
"1523","089566",15,-85.2,30.12,"WEWAHITCHKA "
"1524","089707",55,-81.73,28.02,"WINTER HAVEN"
"1525","089795",37,-84.87,30.72,"WOODRUFF DAM"
"1526","08G03S",2756,-108.833,42.567,"SOUTH PASS  "
"1527","08K04S",3049,-108.058,39.058,"MESA LAKES  "
"1528","08L02S",2866,-108.382,38.418,"COLUMBINE PA"
"1529","08M06S",3110,-108.022,37.786,"EL DIENTE PE"
"1530","08M07S",2927,-108.195,37.892,"LONE CONE   "
"1531","08M08S",2774,-108.008,37.646,"SCOTCH CREEK"
"1532","08T01S",2549,-108.145,32.924,"SIGNAL PEAK "
"1533","090090",76,-82.57,32.18,"AILEY       "
"1534","090131",88,-83.22,31.35,"ALAPAHA EXP "
"1535","090140",55,-84.13,31.53,"ALBANY 3SE  "
"1536","090181",299,-84.73,34.17,"ALLATOONA DA"
"1537","090211",62,-82.52,31.53,"ALMA BACON C"
"1538","090219",336,-84.3,34.08,"ALPHARETTA 4"
"1539","090253",110,-84.22,32.07,"AMERICUS 3 S"
"1540","090311",110,-82.33,33.55,"APPLING 2 NW"
"1541","090406",131,-83.65,31.7,"ASHBURN 3 EN"
"1542","090432",210,-83.38,33.93,"ATHENS COLLE"
"1543","090435",244,-83.32,33.95,"ATHENS MUNI "
"1544","090451",306,-84.42,33.65,"ATLANTA HART"
"1545","090495",134,-82.03,33.47,"AUGUSTA BUSH"
"1546","090500",53,-81.97,33.47,"AUGUSTA     "
"1547","090581",37,-84.58,30.92,"BAINBRIDGE  "
"1548","090586",58,-84.65,30.8,"BAINBRIDGE I"
"1549","090946",3,-81.22,31.48,"BLACKBEARD I"
"1550","090969",592,-83.93,34.85,"BLAIRSVILLE "
"1551","090979",82,-84.95,31.35,"BLAKELY     "
"1552","091024",528,-84.32,34.87,"BLUE RIDGE 3"
"1553","091266",58,-81.68,32.38,"BROOKLET 1 W"
"1554","091340",4,-81.5,31.17,"BRUNSWICK   "
"1555","091345",7,-81.38,31.15,"BRUNSWICK MC"
"1556","091372",204,-84.53,32.3,"BUENA VISTA "
"1557","091448",149,-83.73,32.67,"BYRON EXPERI"
"1558","091463",82,-84.22,30.9,"CAIRO 2 N   "
"1559","091474",198,-84.97,34.48,"CALHOUN EXP "
"1560","091500",55,-84.22,31.23,"CAMILLA 3 SE"
"1561","091544",27,-81.62,31.87,"FORT STEWART"
"1562","091601",137,-82.98,34.07,"CARLTON BRID"
"1563","091640",342,-85.07,33.58,"CARROLLTON  "
"1564","091665",226,-84.8,34.15,"CARTERSVILLE"
"1565","091732",244,-85.25,34.02,"CEDARTOWN 3 "
"1566","091973",57,-81.9,32.17,"CLAXTON     "
"1567","091982",610,-83.38,34.87,"CLAYTON 1 SS"
"1568","092153",49,-84.73,31.17,"COLQUITT 2 W"
"1569","092161",79,-84.98,32.47,"COLUMBUS DAR"
"1570","092166",118,-84.93,32.52,"COLUMBUS MET"
"1571","092180",226,-83.43,34.22,"COMMERCE 4 N"
"1572","092266",95,-83.78,31.97,"CORDELE     "
"1573","092283",458,-83.53,34.52,"CORNELIA    "
"1574","092318",235,-83.87,33.6,"COVINGTON   "
"1575","092450",140,-84.78,31.77,"CUTHBERT    "
"1576","092475",415,-84.02,34.55,"DAHLONEGA 2N"
"1577","092485",314,-84.83,33.92,"DALLAS 7 NE "
"1578","092493",232,-84.97,34.77,"DALTON      "
"1579","092783",76,-82.85,31.5,"DOUGLAS     "
"1580","092839",79,-82.92,32.55,"DUBLIN      "
"1581","092966",122,-83.2,32.2,"EASTMAN 1W  "
"1582","093060",201,-82.87,34.1,"ELBERTON 2 N"
"1583","093271",290,-84.28,33.27,"EXPERIMENT  "
"1584","093303",223,-84.1,33,"FAIRVIEW    "
"1585","093312",37,-82.57,30.68,"FARGO       "
"1586","093325",38,-82.35,30.82,"FARGO 17 NE "
"1587","093386",113,-83.27,31.72,"FITZGERALD  "
"1588","093409",6,-81.4,31.88,"FLEMING     "
"1589","093465",37,-82.13,30.73,"FOLKSTON 9 S"
"1590","093506",198,-83.95,33.02,"FORSYTH 6 NN"
"1591","093516",104,-85.05,31.6,"FORT GAINES "
"1592","093544",162,-83.88,32.55,"FORT VALLEY "
"1593","093621",357,-83.85,34.3,"GAINESVILLE "
"1594","093754",52,-81.92,31.93,"GLENNVILLE  "
"1595","093899",189,-83.18,33.57,"GREENSBORO  "
"1596","093915",250,-84.75,33.03,"GREENVILLE 2"
"1597","093936",299,-84.27,33.25,"GRIFFIN     "
"1598","094133",241,-82.92,34.4,"HARTWELL    "
"1599","094170",83,-83.47,32.27,"HAWKINSVILLE"
"1600","094204",76,-82.58,31.87,"HAZLEHURST  "
"1601","094230",454,-83.73,34.7,"HELEN       "
"1602","094388",40,-84.45,31.2,"HOGGARDS MIL"
"1603","094429",55,-82.75,31.03,"HOMERVILLE 3"
"1604","094594",137,-83.17,32.82,"IRWINTON 4 W"
"1605","094648",451,-84.43,34.47,"JASPER 1 NNW"
"1606","094674",31,-81.85,31.65,"JESUP 4 NE  "
"1607","094676",30,-81.88,31.48,"JESUP 8 S   "
"1608","094941",247,-85.28,34.7,"LAFAYETTE 5 "
"1609","094949",218,-85.02,33.05,"LA GRANGE   "
"1610","095314",104,-82.4,33,"LOUISVILLE 1"
"1611","095386",37,-82.68,31.92,"LUMBER CITY "
"1612","095394",180,-84.73,32.05,"LUMPKIN 2 SE"
"1613","095443",110,-83.65,32.7,"MACON LEWIS "
"1614","095550",57,-83.93,32.45,"MARSHALLVILL"
"1615","095811",37,-82.07,32.4,"METTER      "
"1616","095863",85,-82.2,32.88,"MIDVILLE    "
"1617","095874",122,-83.25,33.08,"MILLEDGEVILL"
"1618","095882",59,-81.97,32.87,"MILLEN 4N   "
"1619","095979",88,-84.05,32.3,"MONTEZUMA   "
"1620","095988",207,-83.68,33.3,"MONTICELLO  "
"1621","096038",79,-84.6,31.53,"MORGAN 1 W  "
"1622","096087",101,-83.78,31.18,"MOULTRIE 2 E"
"1623","096219",21,-81.98,31.2,"NAHUNTA 3 E "
"1624","096237",72,-83.25,31.22,"NASHVILLE 5 "
"1625","096244",78,-83.22,31.25,"NASHVILLE 4 "
"1626","096323",43,-81.5,32.58,"NEWINGTON   "
"1627","096335",280,-84.78,33.43,"NEWNAN 4NE  "
"1628","097087",152,-84.37,32.05,"PLAINS SW GA"
"1629","097276",56,-83.58,30.8,"QUITMAN 2NW "
"1630","097600",189,-85.15,34.25,"ROME        "
"1631","097610",195,-85.17,34.35,"ROME WSO AIR"
"1632","097777",125,-82.77,32.95,"SANDERSVILLE"
"1633","097808",3,-81.28,31.4,"SAPELO ISLAN"
"1634","097842",6,-81.27,32,"SAVANNAH USD"
"1635","097847",14,-81.2,32.13,"SAVANNAH WSO"
"1636","097860",3,-80.85,32.02,"SAVANNAH BEA"
"1637","098064",210,-83.1,33.53,"SILOAM 3 N  "
"1638","098351",79,-82.22,32.43,"STILLMORE   "
"1639","098476",61,-82.2,31.72,"SURRENCY 2 W"
"1640","098496",98,-82.33,32.6,"SWAINSBORO  "
"1641","098535",223,-84.55,32.68,"TALBOTTON   "
"1642","098547",305,-85.3,33.77,"TALLAPOOSA 2"
"1643","098661",203,-84.32,32.87,"THOMASTON 2 "
"1644","098666",85,-83.97,30.8,"THOMASVILLE "
"1645","098703",116,-83.53,31.5,"TIFTON EXP S"
"1646","098740",311,-83.32,34.58,"TOCCOA      "
"1647","098950",256,-83.53,33.87,"U OF GA PLAN"
"1648","098969",61,-83.28,30.78,"VALDOSTA WB "
"1649","098972",76,-83.23,30.85,"VALDOSTA 3 E"
"1650","098974",81,-83.33,30.87,"VALDOSTA 4 N"
"1651","099141",155,-82.65,33.42,"WARRENTON   "
"1652","099157",189,-82.72,33.72,"WASHINGTON 2"
"1653","099186",44,-82.32,31.25,"WAYCROSS 4NE"
"1654","099192",43,-82.4,31.25,"WAYCROSS WAR"
"1655","099194",79,-82.02,33.08,"WAYNESBORO 2"
"1656","099291",175,-85.18,32.87,"WEST POINT  "
"1657","099466",293,-83.72,33.98,"WINDER 1 SSE"
"1658","09C01S",1845,-109.5,46.783,"CRYSTAL LAKE"
"1659","09D06S",2774,-109.95,45.067,"FISHER CREEK"
"1660","09E07S",2866,-109.917,44.733,"PARKER PEAK "
"1661","09E08S",2332,-109.65,44.8,"WOLVERINE   "
"1662","09E09S",2671,-109.233,44.3,"MARQUETTE   "
"1663","09E10S",2828,-109.567,44.783,"BEARTOOTH LA"
"1664","09E13S",2982,-109.8,44.383,"BLACKWATER  "
"1665","09F18S",2546,-109.817,43.933,"YOUNTS PEAK "
"1666","09F21S",2543,-109.95,43.117,"NEW FORK LAK"
"1667","09F23S",2866,-109.75,43,"ELKHART PARK"
"1668","09G09S",2768,-109.267,42.65,"BIG SANDY OP"
"1669","09J01S",2662,-109.55,40.717,"KING'S CABIN"
"1670","09J05S",2896,-109.883,40.617,"MOSBY MTN.  "
"1671","09J08S",2774,-109.967,40.9,"HICKERSON PA"
"1672","09J16S",2866,-109.667,40.733,"TROUT CREEK "
"1673","09K01S",2515,-109.517,39.317,"EAST WILLOW "
"1674","09L03S",3003,-109.267,38.483,"LASAL MOUNTA"
"1675","09M02S",2622,-109.483,37.8,"CAMP JACKSON"
"1676","09S02S",2805,-109.45,33.917,"MAVERICK FOR"
"1677","09S07S",2561,-109.15,33.8,"CORONADO TRA"
"1678","09S11S",2750,-109.3,33.65,"HANNAGAN MEA"
"1679","09S18S",2393,-109.5,33.75,"WILDCAT     "
"1680","100010",1343,-112.83,42.95,"ABERDEEN EXP"
"1681","100149",1449,-113.58,42.42,"ALBION COLLE"
"1682","100199",1458,-115.98,44.4,"ALPHA 1 NE  "
"1683","100227",1318,-112.87,42.78,"AMERICAN FAL"
"1684","100282",1180,-115.5,43.33,"ANDERSON DAM"
"1685","100347",1577,-112.57,42.5,"ARBON 2 NW  "
"1686","100375",1623,-113.3,43.63,"ARCO        "
"1687","100448",998,-115.92,43.6,"ARROWROCK DA"
"1688","100470",1603,-111.45,44.07,"ASHTON      "
"1689","100491",1644,-115.13,43.8,"ATLANTA     "
"1690","100525",759,-115.8,47.25,"AVERY RANGER"
"1691","100528",728,-115.92,47.25,"AVERY       "
"1692","100667",631,-116.55,47.98,"BAYVIEW MODE"
"1693","100835",1751,-115.33,45.13,"BIG CREEK   "
"1694","100915",1373,-112.35,43.18,"BLACKFOOT 4 "
"1695","100920",1891,-111.72,43,"BLACKFOOT DA"
"1696","101002",997,-114.95,42.93,"BLISS 4 NW  "
"1697","101017",1186,-116.2,43.72,"BOISE 7 N   "
"1698","101018",863,-116.07,43.53,"BOISE LUCKY "
"1699","101022",871,-116.22,43.57,"BOISE AIR TE"
"1700","101079",563,-116.3,48.7,"BONNERS FERR"
"1701","101180",562,-116.87,44.83,"BROWNLEE DAM"
"1702","101195",915,-115.8,42.88,"BRUNEAU     "
"1703","101217",1147,-114.77,42.6,"BUHL NO 2   "
"1704","101220",1159,-114.75,42.6,"BUHL NO 2   "
"1705","101244",686,-115.5,46.63,"BUNGALOW RAN"
"1706","101272",1247,-115.8,47.53,"BURKE 2 ENE "
"1707","101288",1275,-113.78,42.53,"BURLEY      "
"1708","101298",1263,-113.8,42.55,"BURLEY FACTO"
"1709","101303",1267,-113.77,42.53,"BURLEY      "
"1710","101363",665,-116.07,48.08,"CABINET GORG"
"1711","101380",722,-116.68,43.67,"CALDWELL    "
"1712","101408",808,-116.68,44.57,"CAMBRIDGE   "
"1713","101422",705,-115.33,45.48,"CAMPBELLS FE"
"1714","101514",1485,-116.05,44.53,"CASCADE 1 NW"
"1715","101551",1168,-114.87,42.55,"CASTLEFORD 2"
"1716","101663",1577,-114.23,44.5,"CHALLIS     "
"1717","101671",1885,-113.8,44,"CHILLY BARTO"
"1718","101810",650,-116.17,48.15,"CLARK FORK 1"
"1719","101831",857,-116.25,47.02,"CLARKIA     "
"1720","101932",1537,-114.23,45.1,"COBALT      "
"1721","101938",2077,-114.35,45.12,"COBALT BLACK"
"1722","101956",659,-116.75,47.68,"COEUR D'ALEN"
"1723","101960",703,-116.82,47.77,"COEUR D'ALEN"
"1724","102071",1891,-111.55,42.72,"CONDA       "
"1725","102154",1040,-116.35,46.05,"COTTONWOOD  "
"1726","102159",1205,-116.38,46.03,"COTTONWOOD 2"
"1727","102187",961,-116.42,44.75,"COUNCIL     "
"1728","102246",1143,-116.48,46.23,"CRAIGMONT   "
"1729","102260",1797,-113.57,43.47,"CRATERS OF T"
"1730","102385",1641,-115.63,44.32,"DEADWOOD DAM"
"1731","102422",933,-116.48,47.73,"DECEPTION CR"
"1732","102444",766,-116.75,43.58,"DEER FLAT DA"
"1733","102451",2181,-116.1,43.75,"DEER POINT  "
"1734","102575",1711,-115.47,45.55,"DIXIE       "
"1735","102676",1861,-111.12,43.73,"DRIGGS      "
"1736","102707",1665,-112.2,44.25,"DUBOIS EXPER"
"1737","102717",1564,-112.22,44.17,"DUBOIS FAA A"
"1738","102845",303,-116.3,46.5,"DWORSHAK FIS"
"1739","102875",1214,-115.43,45.82,"ELK CITY R S"
"1740","102892",888,-116.17,46.78,"ELK RIVER 1 "
"1741","102942",729,-116.47,43.87,"EMMETT 2 E  "
"1742","103108",1546,-114.8,43.35,"FAIRFIELD R "
"1743","103110",1531,-114.75,43.32,"FAIRFIELD 3 "
"1744","103143",483,-115.55,46.1,"FENN RANGER "
"1745","103297",1373,-112.43,43.03,"FORT HALL 1 "
"1746","103417",2227,-114.65,43.88,"GALENA      "
"1747","103448",961,-115.92,44.07,"GARDEN VALLE"
"1748","103554",1376,-113.92,45.57,"GIBBONSVILLE"
"1749","103631",765,-115.32,42.93,"GLENNS FERRY"
"1750","103677",991,-114.7,42.93,"GOODING 1 S "
"1751","103682",1129,-114.77,42.92,"GOODING 2 S "
"1752","103732",1692,-111.73,42.58,"GRACE       "
"1753","103760",720,-116.1,42.98,"GRAND VIEW 2"
"1754","103771",1022,-116.13,45.92,"GRANGEVILLE "
"1755","103780",686,-115.93,45.83,"GRANGEVILLE "
"1756","103809",1565,-115.88,42.38,"GRASMERE    "
"1757","103825",1995,-111.43,43.05,"GRAY        "
"1758","103882",1861,-113.62,43.7,"GROUSE      "
"1759","103932",876,-114.93,42.8,"HAGERMAN 2 S"
"1760","103942",1630,-114.32,43.52,"HAILEY 3 NNW"
"1761","103964",1464,-112.25,43.98,"HAMER 4 NW  "
"1762","104140",1237,-114.13,42.6,"HAZELTON    "
"1763","104150",957,-115.8,46.63,"HEADQUARTERS"
"1764","104230",1937,-111.48,42.92,"HENRY       "
"1765","104268",1525,-115.05,43.3,"HILL CITY 1 "
"1766","104295",1379,-114.57,42.35,"HOLLISTER   "
"1767","104384",1470,-113,43.78,"HOWE        "
"1768","104442",1202,-115.83,43.83,"IDAHO CITY  "
"1769","104455",1476,-111.92,43.57,"IDAHO FALLS "
"1770","104456",1742,-111.78,43.35,"IDAHO FALLS "
"1771","104457",1446,-112.07,43.52,"IDAHO FALLS "
"1772","104459",1458,-112.7,43.85,"IDAHO FALLS "
"1773","104460",1504,-112.95,43.53,"IDAHO FALLS "
"1774","104588",1617,-111.3,43.4,"IRWIN 2 SE  "
"1775","104598",1922,-111.4,44.42,"ISLAND PARK "
"1776","104670",1140,-114.52,42.73,"JEROME      "
"1777","104831",707,-116.12,47.53,"KELLOGG     "
"1778","104845",1795,-114.35,43.68,"KETCHUM RS  "
"1779","104908",1876,-111.88,44.4,"KILGORE     "
"1780","105011",384,-115.98,46.15,"KOOSKIA     "
"1781","105038",817,-116.42,43.48,"KUNA        "
"1782","105177",1830,-113.35,44.67,"LEADORE     "
"1783","105236",253,-117.02,46.42,"LEWISTON WAT"
"1784","105241",438,-117.02,46.38,"LEWISTON WSO"
"1785","105275",1806,-111.3,42.12,"LIFTON PUMPI"
"1786","105414",1180,-115.6,44.08,"LOWMAN      "
"1787","105426",1214,-115.57,44.08,"LOWMAN 3E "
"1788","105462",1797,-113.62,43.92,"MACKAY RS   "
"1789","105466",1829,-113.67,43.95,"MACKAY 4 NW "
"1790","105510",1464,-114.37,43.25,"MAGIC LAKE R"
"1791","105544",1348,-112.27,42.2,"MALAD       "
"1792","105559",1362,-112.28,42.17,"MALAD CITY  "
"1793","105563",1384,-113.35,42.32,"MALTA 4 ESE "
"1794","105567",1384,-113.33,42.3,"MALTA       "
"1795","105678",1282,-113,42.67,"MASSACRE ROC"
"1796","105685",1546,-113.92,44.6,"MAY         "
"1797","105708",1534,-116.12,44.9,"MCCALL      "
"1798","105716",1455,-112.2,42.65,"MCCAMMON    "
"1799","105841",796,-116.4,43.6,"MERIDIAN 1 W"
"1800","105859",988,-116.43,44.62,"MESA        "
"1801","105897",1366,-115.02,44.72,"MIDDLE FORK "
"1802","105955",1281,-114.12,42.53,"MILNER DAM  "
"1803","105972",1305,-113.5,42.77,"MINIDOKA 10W"
"1804","105980",1284,-113.5,42.67,"MINIDOKA DAM"
"1805","106053",1818,-111.3,42.32,"MONTPELIER R"
"1806","106152",811,-116.97,46.73,"MOSCOW U OF "
"1807","106174",961,-115.72,43.13,"MOUNTAIN HOM"
"1808","106230",1011,-115.8,47.47,"MULLAN      "
"1809","106235",1096,-115.77,47.47,"MULLAN PASS "
"1810","106237",1841,-115.67,47.45,"MULLAN PASS "
"1811","106295",756,-116.57,43.58,"NAMPA       "
"1812","106300",753,-116.58,43.62,"NAMPA 2 NW  "
"1813","106305",753,-116.57,43.62,"NAMPA SUGAR "
"1814","106388",1180,-116.28,44.97,"NEW MEADOWS "
"1815","106421",939,-116.23,46.23,"NEZPERCE    "
"1816","106424",991,-116.2,46.25,"NEZPERCE    "
"1817","106493",854,-114.83,45.92,"RUNNING CREE"
"1818","106542",1390,-113.88,42.23,"OAKLEY      "
"1819","106553",2105,-114.8,44.05,"OBSIDIAN 2 N"
"1820","106586",939,-116.28,44.17,"OLA         "
"1821","106590",909,-116.28,44.13,"OLA 4 S     "
"1822","106681",314,-116.25,46.48,"OROFINO     "
"1823","106764",1644,-111.23,43.37,"PALISADES   "
"1824","106844",698,-116.95,43.78,"PARMA EXPERI"
"1825","106877",1265,-113.75,42.62,"PAUL 1 ENE  "
"1826","106891",655,-116.93,44.08,"PAYETTE     "
"1827","107040",1487,-114.07,43.3,"PICABO      "
"1828","107046",973,-115.8,46.5,"PIERCE      "
"1829","107208",1353,-112.47,42.87,"POCATELLO 2 "
"1830","107211",1356,-112.53,42.92,"POCATELLO MU"
"1831","107264",541,-116.5,49,"PORTHILL    "
"1832","107301",778,-116.88,46.92,"POTLATCH 3 N"
"1833","107320",1107,-114.7,46.52,"POWELL      "
"1834","107327",1418,-115.58,43.5,"PRAIRIE     "
"1835","107346",1470,-111.83,42.13,"PRESTON     "
"1836","107353",1440,-111.87,42.08,"PRESTON SUGA"
"1837","107386",725,-116.83,48.35,"PRIEST RIVER"
"1838","107644",1500,-111.78,43.82,"REXBURG RICK"
"1839","107648",1193,-116.75,43.2,"REYNOLDS    "
"1840","107673",1315,-114.15,43.05,"RICHFIELD   "
"1841","107706",549,-116.32,45.42,"RIGGINS     "
"1842","107721",1513,-111.78,43.63,"RIRIE       "
"1843","107858",1266,-115.67,47.35,"ROLAND WEST "
"1844","107968",1281,-113.68,42.62,"RUPERT 3 WSW"
"1845","108022",1516,-111.67,43.97,"SAINT ANTHON"
"1846","108062",653,-116.57,47.32,"SAINT MARIES"
"1847","108076",1203,-113.88,45.18,"SALMON LEMHI"
"1848","108080",1198,-113.9,45.18,"SALMON KSRA "
"1849","108137",640,-116.57,48.28,"SANDPOINT EX"
"1850","108380",1211,-114.4,42.93,"SHOSHONE 1 W"
"1851","108395",1037,-114.3,45.37,"SHOUP       "
"1852","108412",1878,-116.82,43.02,"SILVER CITY "
"1853","108475",479,-116.28,45.63,"SLATE CREEK "
"1854","108535",1763,-111.6,42.65,"SODA SPRINGS"
"1855","108548",1757,-114.83,43.5,"SOLDIER CREE"
"1856","108604",1793,-112.18,44.35,"SPENCER RANG"
"1857","108626",1348,-112.68,43.07,"SPRINGFIELD "
"1858","108676",1903,-114.93,44.22,"STANLEY     "
"1859","108786",1610,-113.25,42.02,"STREVELL    "
"1860","108818",1491,-111.75,43.87,"SUGAR       "
"1861","108928",708,-116.38,43.25,"SWAN FALLS P"
"1862","108937",1598,-111.37,43.45,"SWAN VALLEY "
"1863","109000",1171,-114.85,45.1,"TAYLOR RANCH"
"1864","109029",781,-116.92,47.17,"DESMET 1 S  "
"1865","109059",1842,-111.17,43.82,"TETONIA     "
"1866","109065",1800,-111.27,43.85,"TETONIA EXPE"
"1867","109119",1647,-115.17,42.05,"THREE CREEK "
"1868","109293",1119,-114.47,42.58,"TWIN FALLS K"
"1869","109299",1150,-114.42,42.53,"TWIN FALLS 3"
"1870","109303",1208,-114.35,42.55,"TWIN FALLS W"
"1871","109493",845,-115.93,47.47,"WALLACE     "
"1872","109498",900,-115.88,47.5,"WALLACE WOOD"
"1873","109560",1800,-115.67,45.27,"WARREN      "
"1874","109638",644,-116.97,44.25,"WEISER      "
"1875","109840",1205,-116.62,46.23,"WINCHESTER 1"
"1876","109846",1274,-116.63,46.22,"WINCHESTER  "
"1877","109951",1540,-115.48,44.92,"YELLOW PINE "
"1878","109963",756,-115.25,45.55,"YELLOWPINE B"
"1879","10C06S",2470,-110.617,46.783,"SPUR PARK   "
"1880","10D07S",2241,-110,45,"NORTHEAST EN"
"1881","10D13S",2091,-110.967,45.5,"LICK CREEK  "
"1882","10D16S",2470,-110.95,45.4,"SHOWER FALLS"
"1883","10E03S",2466,-110.533,44.717,"CANYON      "
"1884","10E06S",2567,-110.15,44.483,"SYLVAN LAKE "
"1885","10E07S",2433,-110.5667,44.3667,"THUMB DIVIDE"
"1886","10E09S",2393,-110.667,44.2,"LEWIS LAKE D"
"1887","10E10S",2140,-110.567,44.167,"COULTER CREE"
"1888","10E15S",2215,-110.833,44.133,"GRASSY LAKE "
"1889","10E17S",2817,-110.217,44.15,"TWO OCEAN PL"
"1890","10F02S",2143,-110.433,43.933,"BASE CAMP   "
"1891","10F09S",2921,-110.05,43.75,"TOGWOTEE PAS"
"1892","10F15S",2360,-110.017,43.25,"KENDALL R.S."
"1893","10F16S",2512,-110.133,43.167,"LOOMIS PARK "
"1894","10F17S",2418,-110.2,43.133,"EAST RIM DIV"
"1895","10F19S",2668,-110.133,43.383,"GROS VENTRE "
"1896","10F23S",2500,-110.917,43.517,"PHILLIPS BEN"
"1897","10G02S",2713,-110.6,42.95,"BLIND BULL S"
"1898","10G08S",2317,-110.917,42.517,"SALT RIVER S"
"1899","10G12S",2494,-110.8,42.25,"KELLEY R.S. "
"1900","10G13S",2457,-110.533,42.467,"SNIDER BASIN"
"1901","10G15S",2591,-110.583,42.767,"TRIPLE PEAK "
"1902","10G20S",2744,-110.667,42.533,"SPRING CREEK"
"1903","10G22S",2873,-110.683,42.3,"INDIAN CREEK"
"1904","10G23S",2576,-110.817,42.817,"WILLOW CREEK"
"1905","10G24S",2390,-110.683,42.15,"HAMS FORK   "
"1906","10G25S",2317,-110.817,42.517,"COTTONWOOD C"
"1907","10J01S",2790,-110.2,40.917,"HOLE-IN-ROCK"
"1908","10J04S",2896,-110.483,40.95,"HEWINTA     "
"1909","10J10S",3079,-110.433,40.6,"LAKEFORK "
"1910","10J18S",2409,-110.683,40.55,"ROCK CREEK  "
"1911","10J20S",3079,-110.5,40.917,"STEEL CREEK "
"1912","10J25S",3323,-110.617,40.75,"LAKEFORK BAS"
"1913","10J26S",3329,-110.467,40.717,"FIVE POINTS "
"1914","10J30S",3232,-110.583,40.583,"BROWN DUCK  "
"1915","10J44S",2774,-110.883,40.8,"HAYDEN FORK "
"1916","10J52S",3037,-110.95,40.683,"TRIAL LAKE  "
"1917","10K01S",2774,-110.75,39.9,"INDIAN CANYO"
"1918","10R04S",2329,-110.75,34.317,"HEBER       "
"1919","110055",137,-88.05,38.37,"ALBION      "
"1920","110072",219,-90.73,41.23,"ALEDO       "
"1921","110137",131,-90.18,38.88,"ALTON MELVIN"
"1922","110187",195,-89.23,37.47,"ANNA 1E     "
"1923","110203",235,-88.1,42.48,"ANTIOCH     "
"1924","110286",253,-89.27,41.85,"ASHTON      "
"1925","110291",202,-90.37,40.22,"ASTORIA     "
"1926","110338",195,-88.35,41.75,"AURORA      "
"1927","110442",247,-88.15,42.17,"BARRINGTON 3"
"1928","110510",135,-89.85,38.55,"BELLEVILLE S"
"1929","110608",137,-88.92,38,"BENTON      "
"1930","110766",247,-89,40.5,"NORMAL      "
"1931","110993",101,-88.65,37.13,"BROOKPORT DA"
"1932","111093",122,-90.5,40.5,"BUSHNELL    "
"1933","111160",122,-90.22,38.57,"CAHOKIA     "
"1934","111166",114,-89.17,37,"CAIRO 3 N   "
"1935","111265",128,-89.22,37.72,"CARBONDALE S"
"1936","111280",192,-89.87,39.28,"CARLINVILLE "
"1937","111290",153,-89.37,38.63,"CARLYLE RESE"
"1938","111302",102,-88.18,38.07,"CARMI 3     "
"1939","111329",198,-88,39.3,"CASEY       "
"1940","111436",207,-88.17,39.48,"CHARLESTON  "
"1941","111475",220,-88.72,40.73,"CHENOA      "
"1942","111497",192,-87.77,42.12,"CHICAGO BOTA"
"1943","111549",203,-87.9,41.98,"CHICAGO OHAR"
"1944","111572",181,-87.6,41.78,"CHICAGO UNIV"
"1945","111577",187,-87.75,41.78,"CHICAGO MIDW"
"1946","111582",180,-87.63,41.88,"CHICAGO     "
"1947","111648",186,-87.77,41.85,"CICERO      "
"1948","111767",232,-91.17,40.02,"COATSBURG   "
"1949","111775",189,-89.25,37.5,"COBDEN 2 S  "
"1950","112140",170,-87.65,40.13,"DANVILLE    "
"1951","112193",189,-89.02,39.83,"DECATUR     "
"1952","112223",256,-88.77,41.93,"DE KALB     "
"1953","112348",213,-89.52,41.83,"DIXON 1NW   "
"1954","112353",165,-88.67,37.43,"DIXON SPRING"
"1955","112483",128,-89.2,37.98,"DUQUOIN 4SE "
"1956","112497",195,-88.42,41.1,"DWIGHT      "
"1957","112614",125,-90.12,38.62,"EAST ST LOUI"
"1958","112687",185,-88.55,39.15,"EFFINGHAM   "
"1959","112736",250,-88.28,42.03,"ELGIN       "
"1960","112745",247,-90.25,42.33,"ELIZABETH 5 "
"1961","112750",110,-88.3,37.45,"ELIZABETHTOW"
"1962","112931",137,-88.37,38.38,"FAIRFIELD RA"
"1963","112993",220,-88.65,40.25,"FARMER CITY "
"1964","113109",149,-88.48,38.67,"FLORA 2 NW  "
"1965","113257",238,-89.62,42.3,"FREEPORT    "
"1966","113262",229,-89.6,42.3,"FREEPORT W W"
"1967","113290",180,-90.15,41.9,"FULTON      "
"1968","113320",238,-90.37,40.95,"GALESBURG   "
"1969","113335",262,-90.05,41.17,"GALVA       "
"1970","113369",154,-88.43,41.35,"GEBHARD WOOD"
"1971","113384",195,-90.17,41.45,"GENESEO     "
"1972","113413",201,-88.37,40.47,"GIBSON CITY "
"1973","113530",223,-91.03,40.12,"GOLDEN      "
"1974","113717",213,-90.73,39.72,"GRIGGSVILLE "
"1975","113764",173,-88.85,37.8,"HALFWAY     "
"1976","113879",111,-88.52,37.73,"HARRISBURG  "
"1977","113940",140,-90.08,40.28,"HAVANA 4 NNE"
"1978","114013",140,-89.32,41.3,"HENNEPIN POW"
"1979","114017",149,-89.37,41.12,"HENRY       "
"1980","114108",192,-89.48,39.15,"HILLSBORO   "
"1981","114198",216,-87.67,40.47,"HOOPESTON 1N"
"1982","114442",186,-90.2,39.73,"JACKSONVILLE"
"1983","114489",195,-90.33,39.12,"JERSEYVILLE "
"1984","114530",165,-88.1,41.5,"JOLIET BRAND"
"1985","114535",181,-88.17,41.5,"JOLIET      "
"1986","114593",192,-87.87,41.12,"KANKAKEE 3 S"
"1987","114598",192,-87.93,41.13,"KANKAKEE 4 N"
"1988","114603",195,-87.88,41.13,"KANKAKEE    "
"1989","114629",116,-89.95,37.98,"KASKASKIA RI"
"1990","114710",244,-89.9,41.25,"KEWANEE 1 E "
"1991","114770",222,-89.12,42.13,"KISHWAUKEE  "
"1992","114805",146,-89.42,41.03,"LACON 1 N   "
"1993","114814",197,-87.87,41.8,"LAGRANGE    "
"1994","114823",213,-90.97,40.58,"LA HARPE    "
"1995","114837",256,-88.05,42.42,"LAKE VILLA 2"
"1996","114922",159,-89.13,41.33,"PERU        "
"1997","115079",180,-89.4,40.15,"LINCOLN     "
"1998","115294",207,-89.23,37.63,"MAKANDA 1 NW"
"1999","115326",250,-88.6,42.25,"MARENGO     "
"2000","115342",146,-88.9,37.77,"MARION 4 NNE"
"2001","115380",174,-87.68,39.38,"MARSHALL    "
"2002","115405",131,-89.8,38.48,"MASCOUTAH   "
"2003","115413",177,-89.7,40.2,"MASON CITY 1"
"2004","115430",220,-88.35,39.47,"MATTOON     "
"2005","115515",146,-88.5,38.1,"MCLEANSBORO "
"2006","115712",229,-89.05,40.9,"MINONK      "
"2007","115751",184,-90.5,41.45,"MOLINE QUAD "
"2008","115768",235,-90.63,40.92,"MONMOUTH    "
"2009","115825",168,-88.4,41.4,"MORRIS      "
"2010","115833",184,-89.97,41.82,"MORRISON    "
"2011","115841",192,-89.47,39.42,"MORRISONVILL"
"2012","115846",192,-89.4,39.42,"MORRISONVILL"
"2013","115888",143,-87.77,38.42,"MOUNT CARMEL"
"2014","115893",128,-87.75,38.42,"MOUNT CARMEL"
"2015","115901",195,-89.98,42.1,"MOUNT CARROL"
"2016","115927",210,-89.28,40,"MOUNT PULASK"
"2017","115943",149,-88.87,38.35,"MT VERNON 3N"
"2018","115950",189,-89.03,39.63,"MOWEAQUA    "
"2019","116011",140,-89.4,38.38,"NASHVILLE 3 "
"2020","116159",149,-88.17,39,"NEWTON 6 SSE"
"2021","116200",241,-89,40.52,"NORMAL      "
"2022","116383",130,-89.4,37.18,"OLIVE BRANCH"
"2023","116446",146,-88.07,38.7,"OLNEY 2S    "
"2024","116526",160,-88.92,41.33,"OTTAWA 4SW  "
"2025","116558",158,-87.62,39,"PALESTINE   "
"2026","116579",213,-89.08,39.38,"PANA        "
"2027","116610",219,-87.7,39.62,"PARIS WATERW"
"2028","116616",217,-87.68,41.5,"PARK FOREST "
"2029","116661",284,-88.98,41.68,"PAW PAW     "
"2030","116663",236,-88.08,40.38,"PAXTON      "
"2031","116711",201,-89.68,40.67,"PEORIA GTR P"
"2032","116769",198,-88.17,40,"PHILO       "
"2033","116819",210,-88.13,40.7,"PIPER CITY  "
"2034","116910",198,-88.63,40.88,"PONTIAC     "
"2035","116998",212,-89.48,41.38,"PRINCETON   "
"2036","117004",229,-89.78,40.95,"PRINCEVILLE "
"2037","117067",183,-91.4,39.95,"QUINCY      "
"2038","117072",234,-91.2,39.93,"QUINCY MUNI "
"2039","117077",146,-91.43,39.9,"QUINCY      "
"2040","117150",226,-88.15,40.3,"RANTOUL     "
"2041","117187",140,-88.98,38.03,"REND LAKE DA"
"2042","117336",226,-88.18,40.67,"ROBERTS 3 N "
"2043","117345",163,-87.73,38.98,"ROBINSON    "
"2044","117349",244,-89.07,41.92,"ROCHELLE 6 N"
"2045","117354",238,-89.07,41.9,"ROCHELLE    "
